[
  {
    "title": "Hoy Yong Seafood Restaurant Wok & Roll at One of Clementi's Best Zichar Stalls",
    "link": "https://www.misstamchiak.com/hoy-yong-seafood-restaurant/",
    "category": [
      "Chinese",
      "Hawker",
      "Seafood",
      "Zichar"
    ],
    "imageUrl": "https://live.staticflickr.com/65535/48345018706_f108a43a7e_h.jpg",
    "places": [
      {
        "name": "Clementi",
        "lat": 1.315201,
        "lon": 103.765182
      }
    ]
  },
  {
    "title": "Starter Lab Singapore You Must Try This Famous Sourdough Bakery From Bali!",
    "link": "https://www.misstamchiak.com/starter-lab-singapore/",
    "category": [
      "Cafe"
    ],
    "imageUrl": "https://live.staticflickr.com/65535/48548057636_857fe49f14_h.jpg",
    "places": [
      {
        "name": "Tiong Bahru",
        "lat": 1.286103,
        "lon": 103.827445
      }
    ]
  },
  {
    "title": "Bimi Kaiho Restaurant Udon Even Know, But I Felt Soba-lessed After This Meal!",
    "link": "https://www.misstamchiak.com/bimi-kaiho-restaurant/",
    "category": [
      "Japanese"
    ],
    "imageUrl": "https://live.staticflickr.com/65535/48582801271_f51e53bcb7_h.jpg",
    "places": [
      {
        "name": "Tanjong Pagar",
        "lat": 1.276561,
        "lon": 103.845725
      }
    ]
  },
  {
    "title": "Obsessive Chocolate Desire (OCD) Cafe Late Night Cafe Serving All Things Chocolate",
    "link": "https://www.misstamchiak.com/obsessive-chocolate-desire-ocd-cafe/",
    "category": [
      "Cafe",
      "Desserts"
    ],
    "imageUrl": "https://live.staticflickr.com/65535/48541750327_fbbdabb06b_h.jpg",
    "places": [
      {
        "name": "Ang Mo Kio",
        "lat": 1.369933,
        "lon": 103.849558
      }
    ]
  },
  {
    "title": "Kenboru Stay Wealthy, Eat Healthy!",
    "link": "https://www.misstamchiak.com/kenboru/",
    "category": [
      "Japanese",
      "Western"
    ],
    "imageUrl": "https://live.staticflickr.com/65535/48549788371_8e991016bd_h.jpg",
    "places": [
      {
        "name": "Dhoby Ghaut",
        "lat": 1.298701,
        "lon": 103.846115
      },
      {
        "name": "Bras Basah",
        "lat": 1.2968620000000002,
        "lon": 103.850667
      },
      {
        "name": "Bencoolen",
        "lat": 1.298918,
        "lon": 103.85035400000001
      }
    ]
  },
  {
    "title": "Happy Roast World A World Where One of the Best Roasted Pork Bellies Truly Exists",
    "link": "https://www.misstamchiak.com/happy-roast-world/",
    "category": [
      "Chinese",
      "Hawker",
      "Chicken Rice",
      "Roast Meat"
    ],
    "imageUrl": "https://live.staticflickr.com/65535/48345215062_68eba0c2c6_h.jpg",
    "places": [
      {
        "name": "Farrer Road",
        "lat": 1.317439,
        "lon": 103.807379
      }
    ]
  },
  {
    "title": "Fu Lin Tou Fu Yuen Must-Try Yong Tau Foo in the East!",
    "link": "https://www.misstamchiak.com/fu-lin-tou-fu-yuen/",
    "category": [
      "Hawker",
      "Yong Tau Foo"
    ],
    "imageUrl": "https://live.staticflickr.com/65535/48101481661_4359c4140c_h.jpg",
    "places": [
      {
        "name": "Kembangan",
        "lat": 1.321038,
        "lon": 103.912949
      }
    ]
  },
  {
    "title": "Eight Awesome Lunch Deals You HAVE To Check Out at Esplanade Mall!",
    "link": "https://www.misstamchiak.com/esplanade-mall-lunch-deals-2018/",
    "category": [
      "Cafe",
      "Chinese",
      "European",
      "Japanese",
      "Restaurant"
    ],
    "imageUrl": "https://farm5.staticflickr.com/4901/44456288280_1a453a94e0_h.jpg",
    "places": [
      {
        "name": "City Hall",
        "lat": 1.292936,
        "lon": 103.852586
      },
      {
        "name": "Esplanade",
        "lat": 1.293658,
        "lon": 103.85508100000001
      }
    ]
  },
  {
    "title": "Commonwealth Crescent Market & Food Centre 9 Stalls You Should Try!",
    "link": "https://www.misstamchiak.com/commonwealth-crescent-market-food-centre/",
    "category": [
      "Chinese - Cantonese",
      "Chinese",
      "Hawker",
      "Bak Chor Mee",
      "Chicken Rice",
      "Curry Puff",
      "Duck Rice",
      "Porridge",
      "Wanton Mee"
    ],
    "imageUrl": "https://live.staticflickr.com/65535/33798990768_c66ac07f69_h.jpg",
    "places": [
      {
        "name": "Commonwealth",
        "lat": 1.302509,
        "lon": 103.798226
      }
    ]
  },
  {
    "title": "Brace Yourself for Maxwell Food Centre's 14 Finest Hawker Stalls!",
    "link": "https://www.misstamchiak.com/maxwell-food-centre/",
    "category": [
      "Chinese - Cantonese",
      "Chinese - Hainan",
      "Chinese",
      "Confectionary",
      "Hawker",
      "Chicken Rice",
      "Curry Rice",
      "Fish Head / Fish Slice Bee Hoon",
      "Kueh",
      "Ngoh Hiang",
      "Peranakan",
      "Roast Meat"
    ],
    "imageUrl": "https://live.staticflickr.com/65535/33918218008_683983cb14_h.jpg",
    "places": [
      {
        "name": "Chinatown",
        "lat": 1.284224,
        "lon": 103.84514399999999
      }
    ]
  },
  {
    "title": "11 Cheap Street Eats in Bugis Street Yay More Money for Shopping!",
    "link": "https://www.misstamchiak.com/bugis-street/",
    "category": [
      "Chinese",
      "Desserts",
      "International",
      "Seafood",
      "Sichuan",
      "Thai",
      "Vietnamese",
      "Beef Noodles",
      "Chicken Rice",
      "Duck Rice",
      "Yam Cake"
    ],
    "imageUrl": "https://farm5.staticflickr.com/4210/35526494961_64757c1605_b.jpg",
    "places": [
      {
        "name": "Bugis",
        "lat": 1.300465,
        "lon": 103.85570600000001
      }
    ]
  },
  {
    "title": "Fortune Centre A Hotpot of Delicious Vegetarian Restaurants and Eateries!",
    "link": "https://www.misstamchiak.com/fortune-centre/",
    "category": [
      "Cafe",
      "Chinese",
      "Vegetarian",
      "Korean",
      "Restaurant"
    ],
    "imageUrl": "https://c1.staticflickr.com/5/4212/35385489281_1e97c4d961_h.jpg",
    "places": [
      {
        "name": "Bugis",
        "lat": 1.300465,
        "lon": 103.85570600000001
      }
    ]
  },
  {
    "title": "50 Dollars Challenge: Surviving 5 days in City Hall",
    "link": "https://www.misstamchiak.com/city-hall/",
    "category": [
      "Chinese - Hakka",
      "Chinese",
      "Hawker",
      "International",
      "Malay",
      "Bak Chor Mee",
      "Chee Cheong Fun",
      "Chicken Rice",
      "Curry Rice",
      "Kaya Toast",
      "Roti Prata",
      "Tao Suan"
    ],
    "imageUrl": "https://farm5.staticflickr.com/4254/34931490644_d318316bb9_h.jpg",
    "places": [
      {
        "name": "City Hall",
        "lat": 1.292936,
        "lon": 103.852586
      }
    ]
  },
  {
    "title": "The Grandstand Singapore's Hidden Melting Pot of International Cuisines",
    "link": "https://www.misstamchiak.com/the-grandstand/",
    "category": [
      "French",
      "Cafe",
      "Chinese",
      "Dim Sum",
      "European",
      "Hawker",
      "Indian",
      "Japanese",
      "Thai"
    ],
    "imageUrl": "https://farm5.staticflickr.com/4593/27177892069_10348b489c_h.jpg",
    "places": [
      {
        "name": "Sixth Avenue",
        "lat": 1.330858,
        "lon": 103.79690699999999
      }
    ]
  },
  {
    "title": "Soon Soon Teochew Porridge Comfort Food for Rainy Days",
    "link": "https://www.misstamchiak.com/soon-soon-teochew-porridge/",
    "category": [
      "Chinese - Teochew"
    ],
    "imageUrl": "https://live.staticflickr.com/65535/48077531067_22dd78dcf6_h.jpg",
    "places": [
      {
        "name": "Kovan",
        "lat": 1.360179,
        "lon": 103.885065
      }
    ]
  },
  {
    "title": "Afuri Ramen + Dumpling If You Love Ramen, Yuzu Totally Check Afuri at Funan Out!",
    "link": "https://www.misstamchiak.com/afuri-ramen-singapore/",
    "category": [
      "Japanese"
    ],
    "imageUrl": "https://live.staticflickr.com/65535/48167584562_c33460761b_h.jpg",
    "places": [
      {
        "name": "City Hall",
        "lat": 1.292936,
        "lon": 103.852586
      }
    ]
  },
  {
    "title": "14 Eateries That'll Have You Eating Like a Basic Tampines Heartlander",
    "link": "https://www.misstamchiak.com/tampines/",
    "category": [
      "Cafe",
      "Chinese",
      "Desserts",
      "Hawker",
      "Indian",
      "Malay",
      "Bak Chor Mee",
      "Fried Carrot Cake"
    ],
    "imageUrl": "https://c1.staticflickr.com/5/4197/34035797324_59f27e4830_b.jpg",
    "places": [
      {
        "name": "Tampines",
        "lat": 1.353302,
        "lon": 103.945145
      }
    ]
  },
  {
    "title": "9 Affordable Places to Makan in Pasir Ris",
    "link": "https://www.misstamchiak.com/pasir-ris/",
    "category": [
      "Cafe",
      "Chinese",
      "Desserts",
      "Thai",
      "Korean"
    ],
    "imageUrl": "https://c1.staticflickr.com/5/4200/34747526321_07073d5c98_b.jpg",
    "places": [
      {
        "name": "Pasir Ris",
        "lat": 1.373043,
        "lon": 103.949285
      }
    ]
  },
  {
    "title": "7 Favourite Hawker Stalls for Breakfast at Tampines Round Market",
    "link": "https://www.misstamchiak.com/tampines-round-market/",
    "category": [
      "Hawker",
      "Lor Mee",
      "Porridge",
      "Prawn Mee",
      "Wanton Mee"
    ],
    "imageUrl": "https://c1.staticflickr.com/5/4176/34658387436_e2f22426e1_b.jpg",
    "places": [
      {
        "name": "Tampines",
        "lat": 1.353302,
        "lon": 103.945145
      }
    ]
  },
  {
    "title": "myVillage Charming Mall in Serangoon with Delicious Food Options",
    "link": "https://www.misstamchiak.com/myvillage/",
    "category": [
      "Burger",
      "French",
      "Cafe",
      "European",
      "International",
      "Italian",
      "Japanese",
      "Seafood",
      "Restaurant",
      "Weekend Bites"
    ],
    "imageUrl": "https://farm5.staticflickr.com/4782/40934609301_c7d86f5b8a_b.jpg",
    "places": [
      {
        "name": "Serangoon",
        "lat": 1.349708,
        "lon": 103.873575
      }
    ]
  },
  {
    "title": "10 Fun Things to See and Do at the Amazing Artbox Singapore 2018",
    "link": "https://www.misstamchiak.com/artbox-singapore/",
    "category": [
      "Confectionary",
      "Desserts",
      "European",
      "Hawker",
      "Indian",
      "Indonesian",
      "International",
      "Italian",
      "Japanese",
      "Malay",
      "Seafood",
      "Taiwanese",
      "Thai",
      "Vegetarian",
      "Weekend Bites"
    ],
    "imageUrl": "https://farm1.staticflickr.com/820/41254774451_8cf13ea02c_b.jpg",
    "places": [
      {
        "name": "Marina Bay",
        "lat": 1.276427,
        "lon": 103.854598
      }
    ]
  },
  {
    "title": "A Paya Lebar Food Guide 16 Spots We Love & You Should Try!",
    "link": "https://www.misstamchiak.com/paya-lebar-food-guide/",
    "category": [
      "Chinese",
      "Desserts",
      "Hawker",
      "International",
      "Vegetarian",
      "Vietnamese",
      "Ban Mian",
      "Nasi Padang",
      "Roti Prata"
    ],
    "imageUrl": "https://c1.staticflickr.com/8/7468/16105246848_9ae103b55f_b.jpg",
    "places": [
      {
        "name": "Paya Lebar",
        "lat": 1.3181120000000002,
        "lon": 103.89305999999999
      }
    ]
  },
  {
    "title": "Ice Cream Skool A School You'll Never Want To Be Dismissed From!",
    "link": "https://www.misstamchiak.com/ice-cream-skool/",
    "category": [
      "Cafe",
      "International",
      "Weekend Bites"
    ],
    "imageUrl": "https://farm5.staticflickr.com/4747/28338521549_42c50e945f_h.jpg",
    "places": [
      {
        "name": "Tampines",
        "lat": 1.353302,
        "lon": 103.945145
      }
    ]
  },
  {
    "title": "7 Stalls to Delight You at Chong Pang Food Centre",
    "link": "https://www.misstamchiak.com/chong-pang/",
    "category": [
      "Hawker",
      "Duck Rice",
      "Fishball Noodles",
      "Kway Chap",
      "Nasi Lemak"
    ],
    "imageUrl": "https://farm5.staticflickr.com/4329/35518281473_0b45bcfa45_b.jpg",
    "places": [
      {
        "name": "Yishun",
        "lat": 1.429443,
        "lon": 103.83500500000001
      }
    ]
  },
  {
    "title": "Lime Restaurant FREE Yusheng & Buddha Jump Over the Wall!",
    "link": "https://www.misstamchiak.com/lime-cny/",
    "category": [
      "Buffet",
      "Chinese",
      "Desserts",
      "International",
      "Seafood",
      "Weekend Bites"
    ],
    "imageUrl": "https://farm5.staticflickr.com/4762/25983710478_b90183afdb_h.jpg",
    "places": [
      {
        "name": "Chinatown",
        "lat": 1.284224,
        "lon": 103.84514399999999
      }
    ]
  },
  {
    "title": "The Highly Anticipated TANGS CNY Fair 2018 is Back!",
    "link": "https://www.misstamchiak.com/tangs-cny-fair-2018/",
    "category": [
      "Chinese - Hainan",
      "Chinese - Hakka",
      "Chinese - Hokkien",
      "Chinese - Teochew",
      "Chinese",
      "Confectionary",
      "Desserts",
      "Vegetarian",
      "Weekend Bites"
    ],
    "imageUrl": "https://farm5.staticflickr.com/4673/28124863799_9bb864c3e4_h.jpg",
    "places": [
      {
        "name": "HarbourFront",
        "lat": 1.2653889999999999,
        "lon": 103.82153000000001
      }
    ]
  },
  {
    "title": "10 Delicious Eateries You Should Try At Tiong Bahru Plaza",
    "link": "https://www.misstamchiak.com/tiong-bahru-plaza/",
    "category": [
      "Cafe",
      "Chinese",
      "Desserts",
      "European",
      "International",
      "Italian",
      "Japanese",
      "Taiwanese",
      "Vietnamese",
      "Restaurant",
      "Weekend Bites"
    ],
    "imageUrl": "https://farm1.staticflickr.com/791/41554187301_a82bf0a77f_b.jpg",
    "places": [
      {
        "name": "Tiong Bahru",
        "lat": 1.286103,
        "lon": 103.827445
      }
    ]
  },
  {
    "title": "ION Orchard 8 Best Eats in Singapore's Food Haven!",
    "link": "https://www.misstamchiak.com/ion-orchard-culinary-creations-2018/",
    "category": [
      "Cantonese Restaurant",
      "Chinese - Cantonese",
      "Chinese",
      "Confectionary",
      "Desserts",
      "Hawker",
      "Japanese",
      "Laksa",
      "Hawker Chilli Crabs",
      "Restaurant"
    ],
    "imageUrl": "https://farm2.staticflickr.com/1810/42835168821_d368a6cdec_b.jpg",
    "places": [
      {
        "name": "Orchard",
        "lat": 1.30398,
        "lon": 103.832245
      }
    ]
  },
  {
    "title": "ION Orchard Culinary Creations 2018 Exclusive Deals & Eats!",
    "link": "https://www.misstamchiak.com/ion-orchard-culinary-creations-2018-deals/",
    "category": [
      "Chinese",
      "Confectionary",
      "Desserts",
      "Hawker",
      "Japanese",
      "Seafood",
      "Taiwanese",
      "Hawker Chilli Crabs",
      "Restaurant"
    ],
    "imageUrl": "https://farm2.staticflickr.com/1783/43143898682_ca976cfc3f_o.jpg",
    "places": [
      {
        "name": "Orchard",
        "lat": 1.30398,
        "lon": 103.832245
      }
    ]
  },
  {
    "title": "Feast like Royalty with Clarke Quay's 9 Best Kept Secrets This June Holiday",
    "link": "https://www.misstamchiak.com/clarke-quay/",
    "category": [
      "Burger",
      "Cafe",
      "Chinese",
      "Desserts",
      "European",
      "Italian"
    ],
    "imageUrl": "https://c1.staticflickr.com/5/4201/34495534624_8eba5275d6_b.jpg",
    "places": [
      {
        "name": "Clarke Quay",
        "lat": 1.288386,
        "lon": 103.84655500000001
      }
    ]
  },
  {
    "title": "7 Delicious Food at Chomp Chomp Food Centre That's Perfect For Supper",
    "link": "https://www.misstamchiak.com/chomp-chomp/",
    "category": [
      "Hawker",
      "BBQ Stingray",
      "Fried Carrot Cake",
      "Hokkien Prawn Mee",
      "Oyster Omelette",
      "Satay",
      "Satay Bee Hoon"
    ],
    "imageUrl": "https://c1.staticflickr.com/5/4228/34820527672_dfe367a5b7_b.jpg",
    "places": [
      {
        "name": "Serangoon",
        "lat": 1.349708,
        "lon": 103.873575
      }
    ]
  },
  {
    "title": "The Shoppes at Marina Bay Sands Pamper Yourself With a Delightful High Tea Spread",
    "link": "https://www.misstamchiak.com/marina-bay-sands-high-tea-2018/",
    "category": [
      "Cafe",
      "Restaurant",
      "Weekend Bites"
    ],
    "imageUrl": "https://farm1.staticflickr.com/939/43730913071_e28d912942_b.jpg",
    "places": [
      {
        "name": "Marina Bay",
        "lat": 1.276427,
        "lon": 103.854598
      }
    ]
  },
  {
    "title": "7 Hidden Gems in Bedok Point that are Offering Great Deals this December!",
    "link": "https://www.misstamchiak.com/bedok-point/",
    "category": [
      "Chinese - Teochew",
      "Chinese",
      "Japanese",
      "Steamboat",
      "Taiwanese",
      "Thai"
    ],
    "imageUrl": "https://farm5.staticflickr.com/4880/44311589520_02a2b250c9_k.jpg",
    "places": [
      {
        "name": "Bedok",
        "lat": 1.32398,
        "lon": 103.92998399999999
      }
    ]
  },
  {
    "title": "Niu Zou La Mian Muslim Food Halal Chinese Handmade Noodles that's Made Upon Order!",
    "link": "https://www.misstamchiak.com/niu-zou-la-mian-muslim-food/",
    "category": [
      "Chinese",
      "Hawker",
      "Beef Noodles"
    ],
    "imageUrl": "https://live.staticflickr.com/65535/32903102077_41c3b67bc1_h.jpg",
    "places": [
      {
        "name": "Ubi",
        "lat": 1.329975,
        "lon": 103.899227
      }
    ]
  },
  {
    "title": "Apiary Cafe Unique Ice-Cream Flavours That Will Blow Your Mind!",
    "link": "https://www.misstamchiak.com/apiary-cafe/",
    "category": [
      "Cafe"
    ],
    "imageUrl": "https://live.staticflickr.com/65535/48091516841_cf084acd86_h.jpg",
    "places": [
      {
        "name": "Chinatown",
        "lat": 1.284224,
        "lon": 103.84514399999999
      }
    ]
  },
  {
    "title": "One Raffles Place NEW Food Options and GSS Discounts!",
    "link": "https://www.misstamchiak.com/one-raffles-place/",
    "category": [
      "Chinese",
      "Confectionary",
      "Desserts",
      "European",
      "Hong Kong",
      "International",
      "Korean"
    ],
    "imageUrl": "https://live.staticflickr.com/65535/48135972711_3809e37105_h.jpg",
    "places": [
      {
        "name": "Raffles Place",
        "lat": 1.284126,
        "lon": 103.851462
      }
    ]
  },
  {
    "title": "Bakery Brera & Fine Foods Homegrown Artisan Bakery You Must Try!",
    "link": "https://www.misstamchiak.com/bakery-brera/",
    "category": [
      "Confectionary",
      "Desserts"
    ],
    "imageUrl": "https://live.staticflickr.com/65535/48118978807_a4f0fa25c7_h.jpg",
    "places": [
      {
        "name": "Farrer Road",
        "lat": 1.317439,
        "lon": 103.807379
      }
    ]
  },
  {
    "title": "Kuai San Dian Xin EVERY Dim Sum Here is $1.30!",
    "link": "https://www.misstamchiak.com/kuai-san-dian-xin/",
    "category": [
      "Chinese",
      "Dim Sum",
      "Hawker",
      "Dim Sum"
    ],
    "imageUrl": "https://live.staticflickr.com/65535/48101609948_99270c4802_h.jpg",
    "places": [
      {
        "name": "Lakeside",
        "lat": 1.344259,
        "lon": 103.720949
      }
    ]
  },
  {
    "title": "Ubi DMQ Eating House The QQ Handmade Noodles with Lala is so Good!",
    "link": "https://www.misstamchiak.com/ubi-dmq-eating-house/",
    "category": [
      "Chinese",
      "Hawker",
      "Ban Mian"
    ],
    "imageUrl": "https://live.staticflickr.com/65535/47964580458_a406244038_h.jpg",
    "places": [
      {
        "name": "Ubi",
        "lat": 1.329975,
        "lon": 103.899227
      }
    ]
  },
  {
    "title": "NY Night Market The NEW Vivocity Outlet Offers 1-For-1 Draft Beers!",
    "link": "https://www.misstamchiak.com/ny-night-market-vivocity/",
    "category": [
      "Korean"
    ],
    "imageUrl": "https://live.staticflickr.com/65535/48167491052_dcec2663cd_h.jpg",
    "places": [
      {
        "name": "HarbourFront",
        "lat": 1.2653889999999999,
        "lon": 103.82153000000001
      }
    ]
  },
  {
    "title": "Sky22 Penang Street Fare Indulge in the Luxury of Penang's Finest Delicacies!",
    "link": "https://www.misstamchiak.com/sky22-penang-street-fare/",
    "category": [
      "Buffet",
      "Peranakan"
    ],
    "imageUrl": "https://live.staticflickr.com/65535/48239583076_723ab450b3_h.jpg",
    "places": [
      {
        "name": "Novena",
        "lat": 1.320441,
        "lon": 103.843826
      }
    ]
  },
  {
    "title": "Xing Fu Tang ( ) Famous Bubble Tea Store From Taiwan is Here in Singapore!",
    "link": "https://www.misstamchiak.com/xing-fu-tang-singapore/",
    "category": [
      "Taiwanese"
    ],
    "imageUrl": "https://live.staticflickr.com/65535/48239176292_9d3f16bce1_h.jpg",
    "places": [
      {
        "name": "Tampines",
        "lat": 1.353302,
        "lon": 103.945145
      }
    ]
  },
  {
    "title": "Whale Lala Cafe All About the Whales and Healthy Japanese-Western Food!",
    "link": "https://www.misstamchiak.com/whale-lala-cafe/",
    "category": [
      "Cafe",
      "Japanese",
      "Vegetarian"
    ],
    "imageUrl": "https://live.staticflickr.com/65535/48186855366_bc7c7e3f15_h.jpg",
    "places": [
      {
        "name": "Tai Seng",
        "lat": 1.335102,
        "lon": 103.88843299999999
      }
    ]
  },
  {
    "title": "Miss Kefir Delicious and Guilt-Free Dessert!",
    "link": "https://www.misstamchiak.com/miss-kefir/",
    "category": [
      "Cafe"
    ],
    "imageUrl": "https://live.staticflickr.com/65535/48247286267_5cda78d0e8_h.jpg",
    "places": [
      {
        "name": "Eunos",
        "lat": 1.319784,
        "lon": 103.903226
      }
    ]
  },
  {
    "title": "Nayuki Revolutionary Tea & Bakery Cafe Opens Two New Outlets!",
    "link": "https://www.misstamchiak.com/nayuki-singapore/",
    "category": [
      "Cafe"
    ],
    "imageUrl": "https://live.staticflickr.com/65535/48193267552_fb5a5665fa_h.jpg",
    "places": [
      {
        "name": "Orchard",
        "lat": 1.30398,
        "lon": 103.832245
      },
      {
        "name": "City Hall",
        "lat": 1.292936,
        "lon": 103.852586
      }
    ]
  },
  {
    "title": "Flaming Chicken Pot New Hot Pot Spot in Yishun",
    "link": "https://www.misstamchiak.com/flaming-chicken-pot/",
    "category": [
      "Chinese"
    ],
    "imageUrl": "https://live.staticflickr.com/65535/48129802888_98f57bec25_h.jpg",
    "places": [
      {
        "name": "Yishun",
        "lat": 1.429443,
        "lon": 103.83500500000001
      }
    ]
  },
  {
    "title": "Zhao An Granny Grass Jelly The Original Recipe Remains Unchanged and the Grass Jelly is Made by Hand!",
    "link": "https://www.misstamchiak.com/zhao-an-granny-grass-jelly/",
    "category": [
      "Chinese",
      "Desserts",
      "Hawker"
    ],
    "imageUrl": "https://live.staticflickr.com/65535/48309359337_41ab570972_h.jpg",
    "places": [
      {
        "name": "Lavender",
        "lat": 1.3073780000000002,
        "lon": 103.862768
      },
      {
        "name": "Nicoll Highway",
        "lat": 1.2997670000000001,
        "lon": 103.863637
      }
    ]
  },
  {
    "title": "Guangzhou Mian Shi Wanton Noodle Good Wanton Mee in Tanglin Halt That Opens Till 3am",
    "link": "https://www.misstamchiak.com/guangzhou-mian-shi-wanton-noodle/",
    "category": [
      "Chinese",
      "Hawker",
      "Wanton Mee"
    ],
    "imageUrl": "https://live.staticflickr.com/65535/48309041461_105ce78b60_h.jpg",
    "places": [
      {
        "name": "Commonwealth",
        "lat": 1.302509,
        "lon": 103.798226
      }
    ]
  },
  {
    "title": "Asian Rad Afters Is This New & Pretty Cafe Really Rad?",
    "link": "https://www.misstamchiak.com/asian-rad-afters/",
    "category": [
      "Cafe",
      "Desserts"
    ],
    "imageUrl": "https://live.staticflickr.com/65535/48312917002_a388d840ac_h.jpg",
    "places": [
      {
        "name": "Bugis",
        "lat": 1.300465,
        "lon": 103.85570600000001
      }
    ]
  },
  {
    "title": "Lao Cai Curry & Mian Wang 1971 Gluttony Is My Biggest Sin!",
    "link": "https://www.misstamchiak.com/lao-cai-curry-and-mian-wang/",
    "category": [
      "Curry Rice",
      "Hokkien Prawn Mee"
    ],
    "imageUrl": "https://live.staticflickr.com/65535/48264203991_9e58a6125b_h.jpg",
    "places": [
      {
        "name": "Bukit Batok",
        "lat": 1.349034,
        "lon": 103.749567
      },
      {
        "name": "Bukit Gombak",
        "lat": 1.3586120000000002,
        "lon": 103.751791
      }
    ]
  },
  {
    "title": "One Bar Cafe A Band of 4 Musicians Opens an Asian-Western Cafe with Live Performances!",
    "link": "https://www.misstamchiak.com/one-bar-cafe/",
    "category": [
      "Cafe",
      "Japanese"
    ],
    "imageUrl": "https://live.staticflickr.com/65535/48239629331_80c9620d42_h.jpg",
    "places": [
      {
        "name": "Tai Seng",
        "lat": 1.335102,
        "lon": 103.88843299999999
      }
    ]
  },
  {
    "title": "10 Eateries to Visit This National Day Think White Rabbit Ice Cream, Bubble Tea Cocktails, Mao Shan Wang Puffs & More",
    "link": "https://www.misstamchiak.com/national-day-2019/",
    "category": [
      "Buffet",
      "Cafe",
      "Chinese",
      "Desserts"
    ],
    "imageUrl": "https://live.staticflickr.com/65535/48354853561_8d4281c810_h.jpg",
    "places": [
      {
        "name": "Orchard",
        "lat": 1.30398,
        "lon": 103.832245
      }
    ]
  },
  {
    "title": "Whiskit Bakery & Cafe Pretty & Delicious Tarts for Less Than $8!",
    "link": "https://www.misstamchiak.com/whiskit-bakery-cafe/",
    "category": [
      "Cafe",
      "Desserts"
    ],
    "imageUrl": "https://live.staticflickr.com/65535/48344996151_acb4cc861c_h.jpg",
    "places": [
      {
        "name": "Chinatown",
        "lat": 1.284224,
        "lon": 103.84514399999999
      }
    ]
  },
  {
    "title": "Han Kee Fish Soup Low-Profile Homey Fish Soup Stall in Bedok",
    "link": "https://www.misstamchiak.com/han-kee-fish-soup-bedok/",
    "category": [
      "Chinese - Teochew",
      "Chinese",
      "Hawker",
      "Fish Head / Fish Slice Bee Hoon"
    ],
    "imageUrl": "https://live.staticflickr.com/65535/48345138632_8bd12c02bb_h.jpg",
    "places": [
      {
        "name": "Bedok",
        "lat": 1.32398,
        "lon": 103.92998399999999
      }
    ]
  },
  {
    "title": "Travel out of the City for Good Food at these 4 Malls",
    "link": "https://www.misstamchiak.com/lets-feast-together-far-east-malls/",
    "category": [
      "Burger",
      "Cafe",
      "Indian",
      "International",
      "Japanese",
      "Korean"
    ],
    "imageUrl": "https://live.staticflickr.com/65535/48295283052_a6b782af36_h.jpg",
    "places": [
      {
        "name": "Hougang",
        "lat": 1.371292,
        "lon": 103.892381
      }
    ]
  },
  {
    "title": "FUZE by Blend It Up Fusion of Local Elements and Italian Cuisine",
    "link": "https://www.misstamchiak.com/fuze-by-blend-it-up/",
    "category": [
      "International",
      "Italian"
    ],
    "imageUrl": "https://live.staticflickr.com/65535/48248341076_50bac03e22_h.jpg",
    "places": [
      {
        "name": "Tai Seng",
        "lat": 1.335102,
        "lon": 103.88843299999999
      },
      {
        "name": "Bartley",
        "lat": 1.342501,
        "lon": 103.880178
      }
    ]
  },
  {
    "title": "The Orchard Cafe The New Bicentennial Heritage Buffet is Impressive!",
    "link": "https://www.misstamchiak.com/the-orchard-cafe-bicentennial-heritage-buffet/",
    "category": [
      "Buffet"
    ],
    "imageUrl": "https://live.staticflickr.com/65535/48354981827_13637678a9_h.jpg",
    "places": [
      {
        "name": "Orchard",
        "lat": 1.30398,
        "lon": 103.832245
      }
    ]
  },
  {
    "title": "INSPIRASI Soto Ayam Worth Queuing For (only $2.50 each!)",
    "link": "https://www.misstamchiak.com/inspirasi-mee-rebus-bedok/",
    "category": [
      "Hawker",
      "Malay",
      "Mee Rebus",
      "Porridge"
    ],
    "imageUrl": "https://live.staticflickr.com/65535/48304416496_88cf8f499e_h.jpg",
    "places": [
      {
        "name": "Bedok",
        "lat": 1.32398,
        "lon": 103.92998399999999
      }
    ]
  },
  {
    "title": "Tiong Bahru Galicier Pastry You Can Get Every Traditional Nonya Kueh Here!",
    "link": "https://www.misstamchiak.com/tiong-bahru-galicier-pastry/",
    "category": [
      "Confectionary"
    ],
    "imageUrl": "https://live.staticflickr.com/65535/48254463542_502aaa3d48_h.jpg",
    "places": [
      {
        "name": "Tiong Bahru",
        "lat": 1.286103,
        "lon": 103.827445
      }
    ]
  },
  {
    "title": "Penguin's Kitchen Authentic Thai Spiciness That Will Melt Your Polar Ice Caps!",
    "link": "https://www.misstamchiak.com/penguins-kitchen/",
    "category": [
      "Thai"
    ],
    "imageUrl": "https://live.staticflickr.com/65535/48195354291_94e126ce73_h.jpg",
    "places": [
      {
        "name": "Potong Pasir",
        "lat": 1.33138,
        "lon": 103.869056
      }
    ]
  },
  {
    "title": "The Kins' Specialty Cafe The Special Basque Cheesecake is a Must Try!",
    "link": "https://www.misstamchiak.com/the-kins-cafe/",
    "category": [
      "Cafe"
    ],
    "imageUrl": "https://live.staticflickr.com/65535/48254061787_32055e4c6d_h.jpg",
    "places": [
      {
        "name": "Pasir Panjang",
        "lat": 1.276214,
        "lon": 103.79135
      }
    ]
  },
  {
    "title": "Thong Kay Delights Old-School Singaporean Breakfast at Albert Food Centre!",
    "link": "https://www.misstamchiak.com/thong-kay-delights/",
    "category": [
      "Chee Cheong Fun"
    ],
    "imageUrl": "https://live.staticflickr.com/65535/48165931536_aad60eb4f8_h.jpg",
    "places": [
      {
        "name": "Bugis",
        "lat": 1.300465,
        "lon": 103.85570600000001
      }
    ]
  },
  {
    "title": "Huay Kwang Wanton Mee The Recipe Hails From Thailand",
    "link": "https://www.misstamchiak.com/huay-kwang-wanton-mee/",
    "category": [
      "Hawker",
      "Thai",
      "Wanton Mee"
    ],
    "imageUrl": "https://live.staticflickr.com/65535/48249105732_56cf44857f_h.jpg",
    "places": [
      {
        "name": "Tai Seng",
        "lat": 1.335102,
        "lon": 103.88843299999999
      }
    ]
  },
  {
    "title": "Penang Culture Satisfy Your Cravings with Authentic Penang Fare at VivoCity Now!",
    "link": "https://www.misstamchiak.com/penang-culture-vivocity/",
    "category": [
      "Chinese"
    ],
    "imageUrl": "https://live.staticflickr.com/65535/48312212072_e439605dfe_h.jpg",
    "places": [
      {
        "name": "HarbourFront",
        "lat": 1.2653889999999999,
        "lon": 103.82153000000001
      }
    ]
  },
  {
    "title": "KOMA New Japanese Restaurant in Marina Bay Sands with Stunning Decor",
    "link": "https://www.misstamchiak.com/koma-marina-bay-sands/",
    "category": [
      "Japanese"
    ],
    "imageUrl": "https://live.staticflickr.com/65535/48481622122_c8e97fe7b5_h.jpg",
    "places": [
      {
        "name": "Marina Bay",
        "lat": 1.276427,
        "lon": 103.854598
      }
    ]
  },
  {
    "title": "Got Luck Cafe I Got Lucky When I Found This Cafe",
    "link": "https://www.misstamchiak.com/got-luck-cafe/",
    "category": [
      "Cafe",
      "Desserts",
      "Kaya Toast"
    ],
    "imageUrl": "https://live.staticflickr.com/65535/48485199146_8c62b0477b_h.jpg",
    "places": [
      {
        "name": "Bugis",
        "lat": 1.300465,
        "lon": 103.85570600000001
      }
    ]
  },
  {
    "title": "Newton Food Centre Eat Like a Crazy Rich Asian at These 9 Stalls",
    "link": "https://www.misstamchiak.com/newton-food-centre-singapore/",
    "category": [
      "Chinese - Teochew",
      "Hawker",
      "Bak Chor Mee",
      "BBQ Stingray",
      "Fishball Noodles",
      "Hokkien Prawn Mee",
      "Oyster Omelette",
      "Popiah",
      "Prawn Mee",
      "Satay"
    ],
    "imageUrl": "https://live.staticflickr.com/65535/48288633407_c67f4323f9_h.jpg",
    "places": [
      {
        "name": "Newton",
        "lat": 1.3123200000000002,
        "lon": 103.837985
      }
    ]
  },
  {
    "title": "Teck Seng Soya Bean Milk You Wouldn't Want to Eat Any Other Tau Huey After This",
    "link": "https://www.misstamchiak.com/teck-seng-soya-bean-milk/",
    "category": [
      "Beancurd"
    ],
    "imageUrl": "https://live.staticflickr.com/65535/48436589531_d84e45073e_h.jpg",
    "places": [
      {
        "name": "Tiong Bahru",
        "lat": 1.286103,
        "lon": 103.827445
      }
    ]
  },
  {
    "title": "Teochew Fish Porridge The Flaky Strips of Eggs are the Bomb!",
    "link": "https://www.misstamchiak.com/teochew-fish-porridge/",
    "category": [
      "Chinese - Teochew",
      "Chinese",
      "Fish Head / Fish Slice Bee Hoon"
    ],
    "imageUrl": "https://live.staticflickr.com/65535/48345170142_7020b70efe_h.jpg",
    "places": [
      {
        "name": "Bedok",
        "lat": 1.32398,
        "lon": 103.92998399999999
      }
    ]
  },
  {
    "title": "The Battle For Batok Which Hokkien Mee Stall at Bukit Batok Street 11 is King?",
    "link": "https://www.misstamchiak.com/hokkien-mee-bukit-batok-street-11/",
    "category": [
      "Hokkien Prawn Mee"
    ],
    "imageUrl": "https://live.staticflickr.com/65535/48361733616_4a7f7dfaff_h.jpg",
    "places": [
      {
        "name": "Bukit Batok",
        "lat": 1.349034,
        "lon": 103.749567
      }
    ]
  },
  {
    "title": "Mr Biryani Delicious Hyderabad Dhum Biryani & Tandoor in Little India",
    "link": "https://www.misstamchiak.com/mr-biryani-little-india-singapore/",
    "category": [
      "Indian"
    ],
    "imageUrl": "https://live.staticflickr.com/65535/48494450777_2889cfa65b_h.jpg",
    "places": [
      {
        "name": "Little India",
        "lat": 1.3068,
        "lon": 103.84964699999999
      }
    ]
  },
  {
    "title": "Lam Bee Chicken Rice Tasty Chicken Rice In An Old Coffeeshop",
    "link": "https://www.misstamchiak.com/lam-bee-restaurant/",
    "category": [
      "Chinese",
      "Hawker",
      "Chicken Rice",
      "Roast Meat"
    ],
    "imageUrl": "https://live.staticflickr.com/65535/48201466401_09cb61a93d_h.jpg",
    "places": [
      {
        "name": "MacPherson",
        "lat": 1.32615,
        "lon": 103.889299
      }
    ]
  },
  {
    "title": "Bukit Merah View Carrot Cake Carrot Cake Still Made With Freshly Milled Rice!",
    "link": "https://www.misstamchiak.com/bukit-merah-view-carrot-cake/",
    "category": [
      "Fried Carrot Cake"
    ],
    "imageUrl": "https://live.staticflickr.com/65535/48369648056_96d2df5517_h.jpg",
    "places": [
      {
        "name": "Tiong Bahru",
        "lat": 1.286103,
        "lon": 103.827445
      }
    ]
  },
  {
    "title": "Hong Lim Market & Food Centre Exercise Your Freedom to Eat (& Love) at These 19 Hawker Stalls!",
    "link": "https://www.misstamchiak.com/hong-lim-market-and-food-centre/",
    "category": [
      "Chinese - Cantonese",
      "Chinese - Hainan",
      "Chinese - Hokkien",
      "Chinese - Teochew",
      "Hawker",
      "Bak Chor Mee",
      "Bak Kut Teh",
      "Curry Rice",
      "Fishball Noodles",
      "Hokkien Prawn Mee",
      "Kaya Toast",
      "Kway Chap",
      "Laksa",
      "Lor Mee",
      "Porridge",
      "Prawn Mee",
      "Roast Meat",
      "Wanton Mee",
      "You Tiao"
    ],
    "imageUrl": "https://live.staticflickr.com/65535/48177183612_c2380d4201_h.jpg",
    "places": [
      {
        "name": "Chinatown",
        "lat": 1.284224,
        "lon": 103.84514399999999
      }
    ]
  },
  {
    "title": "Hai Kee Teochew Cha Kuay Teow Literally a One-Man 'Show'",
    "link": "https://www.misstamchiak.com/hai-kee-teochew-cha-kuay-teow/",
    "category": [
      "Chinese - Teochew",
      "Chinese",
      "Hawker",
      "Char Kway Teow"
    ],
    "imageUrl": "https://live.staticflickr.com/65535/48362875871_b31d8e01d8_h.jpg",
    "places": [
      {
        "name": "Telok Blangah",
        "lat": 1.270706,
        "lon": 103.809762
      }
    ]
  },
  {
    "title": "CCK 302 Foodhouse This 24-Hour Hawker Stall Sends Laksa (Lotsa) Love with Their Bak Chor Mee & Mee Sua",
    "link": "https://www.misstamchiak.com/cck-302-foodhouse-seng-huat/",
    "category": [
      "Bak Chor Mee",
      "Fishball Noodles",
      "Laksa"
    ],
    "imageUrl": "https://live.staticflickr.com/65535/48255208846_95a1299d6d_h.jpg",
    "places": [
      {
        "name": "Choa Chu Kang",
        "lat": 1.385363,
        "lon": 103.744371
      }
    ]
  },
  {
    "title": "Zion Road Blk 91 Seafood Soup Must-Try Fish Soup in Hidden Coffee Shop!",
    "link": "https://www.misstamchiak.com/zion-road-blk-91-seafood-soup/",
    "category": [
      "Fish Head / Fish Slice Bee Hoon"
    ],
    "imageUrl": "https://live.staticflickr.com/65535/48478268817_bd00470649_h.jpg",
    "places": [
      {
        "name": "Braddell",
        "lat": 1.3404690000000001,
        "lon": 103.846799
      }
    ]
  },
  {
    "title": "Kheng Fatt Hainanese Beef Noodles An Authentic Bowl With Skilfully-Cooked Beef Slices",
    "link": "https://www.misstamchiak.com/kheng-fatt-hainanese-beef-noodles/",
    "category": [
      "Chinese - Hainan",
      "Chinese",
      "Beef Noodles"
    ],
    "imageUrl": "https://live.staticflickr.com/65535/48321153761_ede3ed6f47_h.jpg",
    "places": [
      {
        "name": "Lavender",
        "lat": 1.3073780000000002,
        "lon": 103.862768
      },
      {
        "name": "Nicoll Highway",
        "lat": 1.2997670000000001,
        "lon": 103.863637
      }
    ]
  },
  {
    "title": "Banting Traditional Cuisine This Chilli Ban Mian Will Leave You Banting More",
    "link": "https://www.misstamchiak.com/banting-traditional-cuisine/",
    "category": [
      "Ban Mian"
    ],
    "imageUrl": "https://live.staticflickr.com/65535/48548451766_87469ffa26_h.jpg",
    "places": [
      {
        "name": "Queenstown",
        "lat": 1.294551,
        "lon": 103.806077
      }
    ]
  },
  {
    "title": "Julaiha Muslim Restaurant Popular 24/7 Prata Spot for Night Owls",
    "link": "https://www.misstamchiak.com/julaiha-muslim-restaurant/",
    "category": [
      "Hawker",
      "Indian",
      "Malay",
      "Indian Rojak",
      "Nasi Briyani",
      "Roti Prata",
      "Teh Tarik"
    ],
    "imageUrl": "https://live.staticflickr.com/65535/48353416732_50cb1a4dbb_h.jpg",
    "places": [
      {
        "name": "Tai Seng",
        "lat": 1.335102,
        "lon": 103.88843299999999
      }
    ]
  },
  {
    "title": "Jie Bakery (Tai Seng) Pte Ltd Old School Bread Baked Fresh Daily!",
    "link": "https://www.misstamchiak.com/jie-bakery-tai-seng/",
    "category": [
      "Confectionary"
    ],
    "imageUrl": "https://live.staticflickr.com/65535/48042523387_0006b309c8_h.jpg",
    "places": [
      {
        "name": "Tai Seng",
        "lat": 1.335102,
        "lon": 103.88843299999999
      }
    ]
  },
  {
    "title": "Glyph Supply Co. New Specialty Coffee Joint in 111 Somerset",
    "link": "https://www.misstamchiak.com/glyph-supply-co/",
    "category": [
      "Cafe"
    ],
    "imageUrl": "https://live.staticflickr.com/7872/47562257381_04164da6c5_h.jpg",
    "places": [
      {
        "name": "Orchard",
        "lat": 1.30398,
        "lon": 103.832245
      },
      {
        "name": "Somerset",
        "lat": 1.3002639999999999,
        "lon": 103.839086
      }
    ]
  },
  {
    "title": "Hougang Lee Chen Cooked Food Longest Queue for Legit Reasons",
    "link": "https://www.misstamchiak.com/hougang-lee-chen-cooked-food/",
    "category": [
      "Chinese"
    ],
    "imageUrl": "https://live.staticflickr.com/7911/33663969708_6b14d5aeb5_h.jpg",
    "places": [
      {
        "name": "Bedok",
        "lat": 1.32398,
        "lon": 103.92998399999999
      },
      {
        "name": "Hougang",
        "lat": 1.371292,
        "lon": 103.892381
      }
    ]
  },
  {
    "title": "HAMBAOBAO Flipping Creative Singaporean-Style Burgers at Beauty World Food Centre",
    "link": "https://www.misstamchiak.com/hambaobao-hawker-heritage/",
    "category": [
      "Burger",
      "Hawker"
    ],
    "imageUrl": "https://farm8.staticflickr.com/7890/47254659202_c8cb38d47e_h.jpg",
    "places": [
      {
        "name": "Beauty World",
        "lat": 1.341223,
        "lon": 103.77579399999999
      }
    ]
  },
  {
    "title": "Crispy Roti Prata Simple Prata Made Fresh Daily in Ubi Coffeeshop",
    "link": "https://www.misstamchiak.com/crispy-roti-prata-ubi/",
    "category": [
      "Hawker",
      "Indian",
      "Roti Prata"
    ],
    "imageUrl": "https://farm8.staticflickr.com/7925/47246659912_cc4740b9ee_h.jpg",
    "places": [
      {
        "name": "Ubi",
        "lat": 1.329975,
        "lon": 103.899227
      }
    ]
  },
  {
    "title": "Hong Kong Soya Sauce Chicken Noodle Rice Authentic Cantonese Cuisine",
    "link": "https://www.misstamchiak.com/hong-kong-soya-sauce-chicken-noodle-rice/",
    "category": [
      "Chinese - Cantonese",
      "Chinese",
      "Hawker",
      "Hong Kong"
    ],
    "imageUrl": "https://farm8.staticflickr.com/7806/47347434951_d5191e91f0_h.jpg",
    "places": [
      {
        "name": "Beauty World",
        "lat": 1.341223,
        "lon": 103.77579399999999
      }
    ]
  },
  {
    "title": "8 Food Stalls to Try at the Newly Opened Food Junction @ Great World City",
    "link": "https://www.misstamchiak.com/food-junction-great-world-city/",
    "category": [
      "Chinese",
      "Ban Mian",
      "Chicken Rice",
      "Roast Meat"
    ],
    "imageUrl": "https://farm8.staticflickr.com/7852/33528739588_9a355ee32c_h.jpg",
    "places": [
      {
        "name": "Orchard",
        "lat": 1.30398,
        "lon": 103.832245
      }
    ]
  },
  {
    "title": "Man Tang Hong Spicy Hotpot Longest Queue in the Coffeeshop!",
    "link": "https://www.misstamchiak.com/man-tang-hong-spicy-hotpot/",
    "category": [
      "Chinese",
      "Hawker"
    ],
    "imageUrl": "https://farm8.staticflickr.com/7817/32434411657_f42426c278_h.jpg",
    "places": [
      {
        "name": "Ubi",
        "lat": 1.329975,
        "lon": 103.899227
      }
    ]
  },
  {
    "title": "Teck Hin Delicacies Expect a New Boat-Style Congee in April",
    "link": "https://www.misstamchiak.com/teck-hin-delicacies/",
    "category": [
      "Chinese - Cantonese",
      "Chinese",
      "Hawker",
      "Porridge"
    ],
    "imageUrl": "https://farm5.staticflickr.com/4892/33533092498_4acbc9aea7_h.jpg",
    "places": [
      {
        "name": "Buona Vista",
        "lat": 1.307224,
        "lon": 103.790254
      }
    ]
  },
  {
    "title": "Nipong Naepong NEW Risotto & Ppong Dishes that will Make Your Tummy & Wallet Happy!",
    "link": "https://www.misstamchiak.com/nipong-naepong/",
    "category": [
      "Korean"
    ],
    "imageUrl": "https://farm8.staticflickr.com/7877/47376158211_8c42d0ff37_h.jpg",
    "places": [
      {
        "name": "Somerset",
        "lat": 1.3002639999999999,
        "lon": 103.839086
      }
    ]
  },
  {
    "title": "Indonesia Curry Rice Indonesia's Special Yellow Rice Draws Queue Daily",
    "link": "https://www.misstamchiak.com/indonesia-curry-rice/",
    "category": [
      "Hawker",
      "Indonesian",
      "Curry Rice"
    ],
    "imageUrl": "https://farm8.staticflickr.com/7805/47417052952_88e5e9f5ce_o.jpg",
    "places": [
      {
        "name": "Boon Keng",
        "lat": 1.319336,
        "lon": 103.86156899999999
      }
    ]
  },
  {
    "title": "Tanglin Halt Original Peanut Pancake Sold Out by 10am?!",
    "link": "https://www.misstamchiak.com/tanglin-halt-original-peanut-pancake/",
    "category": [
      "Chinese",
      "Hawker",
      "Mee Jian Kueh"
    ],
    "imageUrl": "https://farm8.staticflickr.com/7927/46746895404_4dde46b410_o.jpg",
    "places": [
      {
        "name": "Commonwealth",
        "lat": 1.302509,
        "lon": 103.798226
      }
    ]
  },
  {
    "title": "Clarke Quay Awesome Value-For-Money Set Lunches Below $25!",
    "link": "https://www.misstamchiak.com/clarke-quay-lunch-2019/",
    "category": [
      "Burger",
      "Chinese",
      "Hong Kong",
      "International",
      "Seafood",
      "Thai"
    ],
    "imageUrl": "https://farm8.staticflickr.com/7862/46510047055_ef5cb016b6_h.jpg",
    "places": [
      {
        "name": "Clarke Quay",
        "lat": 1.288386,
        "lon": 103.84655500000001
      }
    ]
  },
  {
    "title": "WOW Skewer Bar Singaporean-Style Skewers in Simpang Bedok",
    "link": "https://www.misstamchiak.com/wow-skewer-bar/",
    "category": [
      "Japanese",
      "Zichar",
      "Weekend Bites"
    ],
    "imageUrl": "https://farm8.staticflickr.com/7911/32232999707_587285976a_b.jpg",
    "places": [
      {
        "name": "Bedok",
        "lat": 1.32398,
        "lon": 103.92998399999999
      }
    ]
  },
  {
    "title": "Jit Man Prawn Mee & Lor Mee Simple Prawn Mee Loved by Bukit Merah Residents",
    "link": "https://www.misstamchiak.com/jit-man-prawn-mee-lor-mee/",
    "category": [
      "Chinese",
      "Hawker",
      "Prawn Mee"
    ],
    "imageUrl": "https://farm8.staticflickr.com/7916/40525600933_aa4896a52a_o.jpg",
    "places": [
      {
        "name": "Tiong Bahru",
        "lat": 1.286103,
        "lon": 103.827445
      }
    ]
  },
  {
    "title": "Ah Gu Kaka Wa ( ) Simple yet Tasty Sichuan Dishes in Ang Mo Kio",
    "link": "https://www.misstamchiak.com/ah-gu-kaka-wa/",
    "category": [
      "Chinese"
    ],
    "imageUrl": "https://farm8.staticflickr.com/7844/45673028225_fccc8ec948_b.jpg",
    "places": [
      {
        "name": "Ang Mo Kio",
        "lat": 1.369933,
        "lon": 103.849558
      }
    ]
  },
  {
    "title": "Liang Haus Noodle Bar Delicious Wanton Mee & Bak Chor Mee in Bedok",
    "link": "https://www.misstamchiak.com/liang-haus-noodle-bar/",
    "category": [
      "Hawker",
      "Bak Chor Mee",
      "Wanton Mee",
      "Weekend Bites"
    ],
    "imageUrl": "https://farm8.staticflickr.com/7858/47174692951_51ef41bffe_b.jpg",
    "places": [
      {
        "name": "Bedok",
        "lat": 1.32398,
        "lon": 103.92998399999999
      }
    ]
  },
  {
    "title": "Heng Kee Lor Mee The Special Deep Fried Pork Belly Won My Heart",
    "link": "https://www.misstamchiak.com/heng-kee-lor-mee/",
    "category": [
      "Chinese",
      "Hawker",
      "Lor Mee"
    ],
    "imageUrl": "https://farm8.staticflickr.com/7898/40525718223_937ddb8cae_o.jpg",
    "places": [
      {
        "name": "Boon Keng",
        "lat": 1.319336,
        "lon": 103.86156899999999
      }
    ]
  },
  {
    "title": "Redhill Porridge Totally Worth Waking Up Early for!",
    "link": "https://www.misstamchiak.com/redhill-porridge/",
    "category": [
      "Chinese - Hainan",
      "Chinese",
      "Hawker",
      "Porridge"
    ],
    "imageUrl": "https://farm8.staticflickr.com/7915/33650882448_8572691376_h.jpg",
    "places": [
      {
        "name": "Redhill",
        "lat": 1.289635,
        "lon": 103.81674100000001
      },
      {
        "name": "Clementi",
        "lat": 1.315201,
        "lon": 103.765182
      }
    ]
  },
  {
    "title": "Hong Kiat Seafood Restaurant Feast on Affordable Zi Char Under the Stars",
    "link": "https://www.misstamchiak.com/hong-kiat-seafood-restaurant/",
    "category": [
      "Hawker",
      "Zichar"
    ],
    "imageUrl": "https://farm8.staticflickr.com/7817/45626820755_6f43cdf210_b.jpg",
    "places": [
      {
        "name": "Choa Chu Kang",
        "lat": 1.385363,
        "lon": 103.744371
      }
    ]
  },
  {
    "title": "Yang Zhou Hokkien Sotong Mee Famous Beo Crescent Hokkien Mee has been FOUND!",
    "link": "https://www.misstamchiak.com/yang-zhou-hokkien-sotong-mee/",
    "category": [
      "Chinese",
      "Hawker",
      "Hokkien Prawn Mee"
    ],
    "imageUrl": "https://farm8.staticflickr.com/7874/46695384484_54a15d211d_h.jpg",
    "places": [
      {
        "name": "Queenstown",
        "lat": 1.294551,
        "lon": 103.806077
      }
    ]
  },
  {
    "title": "Soon Heng Pork Noodles Authentic Bedok-Style Bak Chor Mee at Neil Road",
    "link": "https://www.misstamchiak.com/soon-heng-pork-noodles/",
    "category": [
      "Hawker",
      "Bak Chor Mee"
    ],
    "imageUrl": "https://farm8.staticflickr.com/7915/46503045695_d73389f226_h.jpg",
    "places": [
      {
        "name": "Outram Park",
        "lat": 1.2797399999999999,
        "lon": 103.83951400000001
      },
      {
        "name": "Chinatown",
        "lat": 1.284224,
        "lon": 103.84514399999999
      }
    ]
  },
  {
    "title": "Popo & Nana's Delights Authentic Eurasian & Peranakan Food (Sold Out Within 3 Hours!)",
    "link": "https://www.misstamchiak.com/popo-nanas-delights/",
    "category": [
      "European",
      "Hawker",
      "Peranakan",
      "Peranakan"
    ],
    "imageUrl": "https://farm8.staticflickr.com/7851/47425937141_e256087be8_h.jpg",
    "places": [
      {
        "name": "Tanjong Pagar",
        "lat": 1.276561,
        "lon": 103.845725
      }
    ]
  },
  {
    "title": "Habitat by Honestbee One of the Best Pancakes, Fish and Chips in Singapore Is Here!",
    "link": "https://www.misstamchiak.com/habitat-by-honestbee/",
    "category": [
      "Cafe",
      "Confectionary",
      "International",
      "Japanese",
      "Seafood"
    ],
    "imageUrl": "https://live.staticflickr.com/65535/47581036792_082b631739_h.jpg",
    "places": [
      {
        "name": "Pasir Panjang",
        "lat": 1.276214,
        "lon": 103.79135
      }
    ]
  },
  {
    "title": "Pin Xiang Well-Braised Chicken Feet with Fall-Off-The-Bone Skin!",
    "link": "https://www.misstamchiak.com/pin-xiang/",
    "category": [
      "Chinese",
      "Hawker",
      "Wanton Mee"
    ],
    "imageUrl": "https://live.staticflickr.com/65535/47658139182_d1668a9dd9_h.jpg",
    "places": [
      {
        "name": "Toa Payoh",
        "lat": 1.332629,
        "lon": 103.847502
      }
    ]
  },
  {
    "title": "Ramadan Bazaar 2019 New Bazaar Concept That Keeps Traditions Alive!",
    "link": "https://www.misstamchiak.com/ramadan-bazaar-2019/",
    "category": [
      "Hawker",
      "Malay"
    ],
    "imageUrl": "https://live.staticflickr.com/65535/33886739578_72b989b36f_h.jpg",
    "places": [
      {
        "name": "Paya Lebar",
        "lat": 1.3181120000000002,
        "lon": 103.89305999999999
      }
    ]
  },
  {
    "title": "UE Print Food Court Underrated Nasi Goreng Ayam & Handmade Noodles!",
    "link": "https://www.misstamchiak.com/ue-print-food-court/",
    "category": [
      "Chinese",
      "Hawker",
      "Indian",
      "Ban Mian"
    ],
    "imageUrl": "https://live.staticflickr.com/65535/47663571142_a0f6f37a4f_h.jpg",
    "places": [
      {
        "name": "Tai Seng",
        "lat": 1.335102,
        "lon": 103.88843299999999
      }
    ]
  },
  {
    "title": "Hammee's NEW Premium Beef Cheeseburger with a Juicier Short Ribs Beef Patty!",
    "link": "https://www.misstamchiak.com/hammees/",
    "category": [
      "Burger",
      "Hawker"
    ],
    "imageUrl": "https://farm5.staticflickr.com/4909/46494762695_08e1bdf08e_k.jpg",
    "places": [
      {
        "name": "Commonwealth",
        "lat": 1.302509,
        "lon": 103.798226
      }
    ]
  },
  {
    "title": "Tie Fun Wan by Chef Ken Chia Nostalgic Old School Bowls",
    "link": "https://www.misstamchiak.com/tie-fun-wan-by-chef-ken-chia/",
    "category": [
      "Chinese"
    ],
    "imageUrl": "https://farm8.staticflickr.com/7914/32491662907_57cd203eb0_h.jpg",
    "places": [
      {
        "name": "Farrer Park",
        "lat": 1.311906,
        "lon": 103.85347800000001
      }
    ]
  },
  {
    "title": "Koothurar Nasi Briyani No Signboard but Sold Out Within 3 Hours!",
    "link": "https://www.misstamchiak.com/koothurar-nasi-briyani/",
    "category": [
      "Hawker",
      "Indian",
      "Nasi Briyani"
    ],
    "imageUrl": "https://farm8.staticflickr.com/7907/33563863748_7a13781470_o.jpg",
    "places": [
      {
        "name": "Lavender",
        "lat": 1.3073780000000002,
        "lon": 103.862768
      },
      {
        "name": "Nicoll Highway",
        "lat": 1.2997670000000001,
        "lon": 103.863637
      }
    ]
  },
  {
    "title": "Nimman Soi 9 A Taste of Authentic Thai Food in Tampines!",
    "link": "https://www.misstamchiak.com/nimman-soi-9/",
    "category": [
      "Hawker",
      "Thai",
      "Kway Chap"
    ],
    "imageUrl": "https://farm8.staticflickr.com/7800/47469220691_a0219f0ae4_h.jpg",
    "places": [
      {
        "name": "Tampines",
        "lat": 1.353302,
        "lon": 103.945145
      }
    ]
  },
  {
    "title": "Five Loaves Hakka Yong Tau Foo Homemade YTF Paste & Tasty Abacus Seeds",
    "link": "https://www.misstamchiak.com/five-loaves-hakka-yong-tau-foo/",
    "category": [
      "Chinese",
      "Hawker",
      "Yong Tau Foo"
    ],
    "imageUrl": "https://farm8.staticflickr.com/7862/46526782435_62834942e5_b.jpg",
    "places": [
      {
        "name": "Bras Basah",
        "lat": 1.2968620000000002,
        "lon": 103.850667
      }
    ]
  },
  {
    "title": "Sora Boru Brand New Japanese Concept Offering Affordable One-Bowl Meals & Donburi!",
    "link": "https://www.misstamchiak.com/sora-boru/",
    "category": [
      "Japanese"
    ],
    "imageUrl": "https://farm8.staticflickr.com/7912/32591749367_4024fbebe7_h.jpg",
    "places": [
      {
        "name": "Bugis",
        "lat": 1.300465,
        "lon": 103.85570600000001
      }
    ]
  },
  {
    "title": "Rusnah Cafe Authentic Gado Gado Hidden in Sime Darby Centre",
    "link": "https://www.misstamchiak.com/rusnah-cafe/",
    "category": [
      "Hawker",
      "Malay",
      "Mee Rebus",
      "Nasi Padang"
    ],
    "imageUrl": "https://farm8.staticflickr.com/7854/33614681438_a82e0f355d_h.jpg",
    "places": [
      {
        "name": "King Albert Park",
        "lat": 1.3356629999999998,
        "lon": 103.783399
      }
    ]
  },
  {
    "title": "Bendemeer Market & Food Centre 14 Stalls You Must Try!",
    "link": "https://www.misstamchiak.com/bendemeer-market-food-centre/",
    "category": [
      "Chinese - Hainan",
      "Chinese",
      "Dim Sum",
      "Hawker",
      "Beef Noodles",
      "Chee Cheong Fun",
      "Curry Rice",
      "Dim Sum",
      "Fried Carrot Cake",
      "Laksa",
      "Lor Mee",
      "Mee Jian Kueh",
      "Porridge",
      "Wanton Mee",
      "Zichar"
    ],
    "imageUrl": "https://live.staticflickr.com/7812/47538159352_092ef0ae1d_h.jpg",
    "places": [
      {
        "name": "Boon Keng",
        "lat": 1.319336,
        "lon": 103.86156899999999
      },
      {
        "name": "Bendemeer",
        "lat": 1.3136729999999999,
        "lon": 103.862978
      }
    ]
  },
  {
    "title": "Belle-Ville Pancake Cafe Insta-Worthy Pancakes that are Fluffier than a Sponge Cake!",
    "link": "https://www.misstamchiak.com/belle-ville-pancake-cafe/",
    "category": [
      "Cafe",
      "Desserts",
      "Japanese"
    ],
    "imageUrl": "https://live.staticflickr.com/7859/46846872324_12f3fa1c00_h.jpg",
    "places": [
      {
        "name": "Tanjong Pagar",
        "lat": 1.276561,
        "lon": 103.845725
      }
    ]
  },
  {
    "title": "Hong Yong Chao Zhou Yu Yuan Guo Tiao Mian Underrated Teochew Handmade Fishball Noodle",
    "link": "https://www.misstamchiak.com/hong-yong-chao-zhou-yu-yuan-guo-tiao-mian/",
    "category": [
      "Chinese - Teochew",
      "Chinese",
      "Hawker",
      "Fishball Noodles"
    ],
    "imageUrl": "https://live.staticflickr.com/65535/33750534388_6364e8e9a9_h.jpg",
    "places": [
      {
        "name": "Tiong Bahru",
        "lat": 1.286103,
        "lon": 103.827445
      }
    ]
  },
  {
    "title": "Hippo Family Restaurant Humble Zichar Eatery for Gatherings with Family, Colleagues & Friends",
    "link": "https://www.misstamchiak.com/hippo-family-restaurant/",
    "category": [
      "Chinese",
      "Zichar"
    ],
    "imageUrl": "https://live.staticflickr.com/65535/32772543637_cc3359dbc8_h.jpg",
    "places": [
      {
        "name": "MacPherson",
        "lat": 1.32615,
        "lon": 103.889299
      }
    ]
  },
  {
    "title": "JW360 Opens Its Doors at Jewel Changi Airport Discover Japan's Way of Life Through Food and Retail",
    "link": "https://www.misstamchiak.com/jw360-jewel-changi-airport/",
    "category": [
      "Japanese"
    ],
    "imageUrl": "https://live.staticflickr.com/65535/46904839024_5153cbab2d_h.jpg",
    "places": [
      {
        "name": "Changi Airport",
        "lat": 1.357479,
        "lon": 103.987884
      }
    ]
  },
  {
    "title": "Eleven Strands Delectable Cafe Food Opposite Serangoon Stadium!",
    "link": "https://www.misstamchiak.com/eleven-strands/",
    "category": [
      "French",
      "Cafe"
    ],
    "imageUrl": "https://live.staticflickr.com/65535/47627685311_a744292446_h.jpg",
    "places": [
      {
        "name": "Yio Chu Kang",
        "lat": 1.381756,
        "lon": 103.84494699999999
      }
    ]
  },
  {
    "title": "Thunderbolt Tea by Boon Lay Traditional Hakka Lui Cha Authentic Healthy Thunder Tea Best for Weight Management!",
    "link": "https://www.misstamchiak.com/thunderbolt-tea-by-boon-lay-traditional-hakka-lui-cha/",
    "category": [
      "Chinese - Hakka",
      "Chinese",
      "Hawker"
    ],
    "imageUrl": "https://live.staticflickr.com/65535/33743594348_b22db04038_h.jpg",
    "places": [
      {
        "name": "Boon Lay",
        "lat": 1.3386040000000001,
        "lon": 103.706065
      },
      {
        "name": "Tai Seng",
        "lat": 1.335102,
        "lon": 103.88843299999999
      }
    ]
  },
  {
    "title": "Fa Ji Minced Meat Fishball Noodle Bak Chor Mee with Super Shiok Lard & Chilli",
    "link": "https://www.misstamchiak.com/fa-ji-minced-meat-fishball-noodle-kovan/",
    "category": [
      "Hawker",
      "Bak Chor Mee"
    ],
    "imageUrl": "https://live.staticflickr.com/65535/46896389924_e6da3b922a_h.jpg",
    "places": [
      {
        "name": "Kovan",
        "lat": 1.360179,
        "lon": 103.885065
      }
    ]
  },
  {
    "title": "Lee's Confectionery Dessert Fanatics will Love this French Patisserie in Jurong",
    "link": "https://www.misstamchiak.com/lees-confectionery-jurong/",
    "category": [
      "Cafe"
    ],
    "imageUrl": "https://live.staticflickr.com/65535/47695597201_54e18c7a76_h.jpg",
    "places": [
      {
        "name": "Jurong East",
        "lat": 1.333153,
        "lon": 103.742287
      }
    ]
  },
  {
    "title": "Al Ehsan Cheap and Good Nasi Padang & Lontong!",
    "link": "https://www.misstamchiak.com/al-ehsan/",
    "category": [
      "Hawker",
      "Nasi Padang"
    ],
    "imageUrl": "https://live.staticflickr.com/65535/32760262117_6088fdf960_h.jpg",
    "places": [
      {
        "name": "Pasir Panjang",
        "lat": 1.276214,
        "lon": 103.79135
      }
    ]
  },
  {
    "title": "Pondok Pantai Timur Glorious Penyet in Ubi That Will Wow Your Tastebuds!",
    "link": "https://www.misstamchiak.com/pondok-pantai-timur/",
    "category": [
      "Hawker",
      "Malay",
      "Mee Rebus"
    ],
    "imageUrl": "https://live.staticflickr.com/65535/47026171734_38c79cc299_h.jpg",
    "places": [
      {
        "name": "Ubi",
        "lat": 1.329975,
        "lon": 103.899227
      }
    ]
  },
  {
    "title": "GLC Hao Yun Lai Restaurant Scrumptious HALAL Tze Char in Tai Seng!",
    "link": "https://www.misstamchiak.com/hao-yun-lai-halal-cze-char-taiseng/",
    "category": [
      "Chinese - Hokkien",
      "Chinese",
      "Hawker",
      "Chicken Rice",
      "Hokkien Prawn Mee"
    ],
    "imageUrl": "https://live.staticflickr.com/65535/47064656624_db9c1bf4d6_h.jpg",
    "places": [
      {
        "name": "Paya Lebar",
        "lat": 1.3181120000000002,
        "lon": 103.89305999999999
      },
      {
        "name": "Tai Seng",
        "lat": 1.335102,
        "lon": 103.88843299999999
      },
      {
        "name": "Ubi",
        "lat": 1.329975,
        "lon": 103.899227
      }
    ]
  },
  {
    "title": "Asam Pedas Claypot Super Super Pedas Claypot Asam Fish Head!",
    "link": "https://www.misstamchiak.com/asam-pedas-claypot-super/",
    "category": [
      "Hawker",
      "Malay"
    ],
    "imageUrl": "https://live.staticflickr.com/65535/47056411364_03c1fdcae7_h.jpg",
    "places": [
      {
        "name": "Buona Vista",
        "lat": 1.307224,
        "lon": 103.790254
      }
    ]
  },
  {
    "title": "Peach Garden @ OCBC Centre Create Your Own Menu From Over 50 Mouth-watering Dishes",
    "link": "https://www.misstamchiak.com/peach-garden-ocbc-centre/",
    "category": [
      "Chinese",
      "Desserts",
      "Dim Sum",
      "Restaurant"
    ],
    "imageUrl": "https://live.staticflickr.com/65535/47991764248_4aa064e06e_h.jpg",
    "places": [
      {
        "name": "Raffles Place",
        "lat": 1.284126,
        "lon": 103.851462
      }
    ]
  },
  {
    "title": "Ho Yun (Hong Kong) Tim Sum Affordable Authentic Hong Kong Dim Sum",
    "link": "https://www.misstamchiak.com/ho-yun-hong-kong-tim-sum/",
    "category": [
      "Chinese - Cantonese",
      "Chinese",
      "Dim Sum",
      "Hawker",
      "Hong Kong",
      "Dim Sum"
    ],
    "imageUrl": "https://live.staticflickr.com/65535/47964075771_959d326815_h.jpg",
    "places": [
      {
        "name": "Tampines",
        "lat": 1.353302,
        "lon": 103.945145
      }
    ]
  },
  {
    "title": "Mongkok Dim Sum Offering Unique Fried Dim Sums 24/7",
    "link": "https://www.misstamchiak.com/mongkok-dim-sum/",
    "category": [
      "Chinese - Cantonese",
      "Chinese",
      "Dim Sum",
      "Hawker",
      "Hong Kong"
    ],
    "imageUrl": "https://live.staticflickr.com/65535/47964067283_df8a6e6c28_h.jpg",
    "places": [
      {
        "name": "Kallang",
        "lat": 1.311489,
        "lon": 103.871387
      }
    ]
  },
  {
    "title": "Masizzim Hearty $50++ Set Meal That Will Make You Go Daebak! ",
    "link": "https://www.misstamchiak.com/masizzim-daebak-set-2019/",
    "category": [
      "Korean"
    ],
    "imageUrl": "https://live.staticflickr.com/65535/48013830457_8de6e3ea37_k.jpg",
    "places": [
      {
        "name": "Orchard",
        "lat": 1.30398,
        "lon": 103.832245
      },
      {
        "name": "Somerset",
        "lat": 1.3002639999999999,
        "lon": 103.839086
      }
    ]
  },
  {
    "title": "Gram Cafe & Pancakes The Godfather of all Souffle Pancakes",
    "link": "https://www.misstamchiak.com/gram-cafe-souffle-pancakes-singapore/",
    "category": [
      "Cafe"
    ],
    "imageUrl": "https://live.staticflickr.com/65535/48067317931_f84fc790df_h.jpg",
    "places": [
      {
        "name": "HarbourFront",
        "lat": 1.2653889999999999,
        "lon": 103.82153000000001
      }
    ]
  },
  {
    "title": "Yong Kwang Yummy Seafood More Than Just Seafood",
    "link": "https://www.misstamchiak.com/yong-kwang-yummy-seafood/",
    "category": [
      "Hawker",
      "Zichar"
    ],
    "imageUrl": "https://live.staticflickr.com/65535/48054665867_e16b3c1ae3_h.jpg",
    "places": [
      {
        "name": "Nicoll Highway",
        "lat": 1.2997670000000001,
        "lon": 103.863637
      }
    ]
  },
  {
    "title": "Ubi 325 Fried Chicken & Western Food Rare Old School Chicken Cutlet & Codfish Fillet",
    "link": "https://www.misstamchiak.com/ubi-325-fried-chicken-western-food/",
    "category": [
      "Hawker",
      "Western"
    ],
    "imageUrl": "https://live.staticflickr.com/65535/47964130483_d6fbb28b02_h.jpg",
    "places": [
      {
        "name": "Ubi",
        "lat": 1.329975,
        "lon": 103.899227
      }
    ]
  },
  {
    "title": "Yishun Park Hawker Centre $1 Carnival NEW $1 Dishes and Even $1 Durian!",
    "link": "https://www.misstamchiak.com/yishun-park-hawker-centre-one-dollar-carnival/",
    "category": [
      "Chinese",
      "Hawker",
      "Chee Cheong Fun",
      "Fishball Noodles",
      "Hokkien Prawn Mee",
      "Mee Rebus",
      "Porridge",
      "Prawn Mee",
      "You Tiao"
    ],
    "imageUrl": "https://live.staticflickr.com/65535/48016993591_486df05278_h.jpg",
    "places": [
      {
        "name": "Sembawang",
        "lat": 1.449051,
        "lon": 103.82004599999999
      },
      {
        "name": "Yishun",
        "lat": 1.429443,
        "lon": 103.83500500000001
      },
      {
        "name": "Khatib",
        "lat": 1.417383,
        "lon": 103.83298
      }
    ]
  },
  {
    "title": "Kok Kee Wanton Mee The Rebirth of Singapore's Most Beloved Hawker Dish",
    "link": "https://www.misstamchiak.com/kok-kee-wanton-mee/",
    "category": [
      "Wanton Mee"
    ],
    "imageUrl": "https://live.staticflickr.com/65535/48048384258_643a7a328b_k.jpg",
    "places": [
      {
        "name": "Lavender",
        "lat": 1.3073780000000002,
        "lon": 103.862768
      }
    ]
  },
  {
    "title": "Kueh Ho Jiak Traditional Kuehs with a Colourful Twist",
    "link": "https://www.misstamchiak.com/kueh-ho-jiak-hawker-heritage/",
    "category": [
      "Hawker"
    ],
    "imageUrl": "https://farm8.staticflickr.com/7919/46367616424_c9efe26e37_h.jpg",
    "places": [
      {
        "name": "Tanjong Pagar",
        "lat": 1.276561,
        "lon": 103.845725
      }
    ]
  },
  {
    "title": "545 Whampoa Prawn Noodles Young Hawker Gave Up Corporate to Craft Insanely Delicious Prawn Noodles",
    "link": "https://www.misstamchiak.com/545-whampoa-prawn-noodles-hawker-heritage/",
    "category": [
      "Hawker",
      "Prawn Mee"
    ],
    "imageUrl": "https://farm8.staticflickr.com/7891/46970767762_ae78813f1e_h.jpg",
    "places": [
      {
        "name": "Little India",
        "lat": 1.3068,
        "lon": 103.84964699999999
      }
    ]
  },
  {
    "title": "Chee Kei ( ) Popular Hong Kong Wanton Noodle Shop Opens at Changi Airport",
    "link": "https://www.misstamchiak.com/chee-kei-changi-airport/",
    "category": [
      "Chinese"
    ],
    "imageUrl": "https://farm5.staticflickr.com/4883/33039709868_a2a673189e_h.jpg",
    "places": [
      {
        "name": "Changi Airport",
        "lat": 1.357479,
        "lon": 103.987884
      }
    ]
  },
  {
    "title": "Duckland Delicious Duck Dishes made with the Best Duck in the World",
    "link": "https://www.misstamchiak.com/duckland-singapore/",
    "category": [
      "Restaurant",
      "Weekend Bites"
    ],
    "imageUrl": "https://farm8.staticflickr.com/7926/46112384304_86a8077ce2_h.jpg",
    "places": [
      {
        "name": "Novena",
        "lat": 1.320441,
        "lon": 103.843826
      }
    ]
  },
  {
    "title": "Duo Ji Chee Cheong Fun Chinatown Hawker Stall That Sells Out by 9.30am!",
    "link": "https://www.misstamchiak.com/duo-ji-chee-cheong-fun/",
    "category": [
      "Chinese",
      "Hawker",
      "Chee Cheong Fun"
    ],
    "imageUrl": "https://farm8.staticflickr.com/7814/47104194872_6bc1ee406c_b.jpg",
    "places": [
      {
        "name": "Chinatown",
        "lat": 1.284224,
        "lon": 103.84514399999999
      }
    ]
  },
  {
    "title": "Xin Yuan Ji Excellent & Affordable Fish Soup in Bugis",
    "link": "https://www.misstamchiak.com/xin-yuan-ji-fish-soup/",
    "category": [
      "Hawker",
      "Fish Head / Fish Slice Bee Hoon",
      "Weekend Bites"
    ],
    "imageUrl": "https://farm8.staticflickr.com/7927/46761289811_5243eaf5ed_h.jpg",
    "places": [
      {
        "name": "Bugis",
        "lat": 1.300465,
        "lon": 103.85570600000001
      }
    ]
  },
  {
    "title": "52 Traditional Hakka Thunder Tea Rice Healthy at Berseh Food Centre",
    "link": "https://www.misstamchiak.com/52-traditional-hakka-thunder-tea-rice/",
    "category": [
      "Chinese - Hakka",
      "Chinese",
      "Hawker"
    ],
    "imageUrl": "https://farm8.staticflickr.com/7864/31819412887_0f4cf0a0f5_h.jpg",
    "places": [
      {
        "name": "Jalan Besar",
        "lat": 1.3051709999999999,
        "lon": 103.855296
      }
    ]
  },
  {
    "title": "Wang Jiao Handmade Noodle Spicy Dry Ban Mian in West Coast Food Centre",
    "link": "https://www.misstamchiak.com/wang-jiao-handmade-noodle/",
    "category": [
      "Hawker",
      "Ban Mian",
      "Weekend Bites"
    ],
    "imageUrl": "https://farm8.staticflickr.com/7827/31844702117_9b4971e98c_h.jpg",
    "places": [
      {
        "name": "Clementi",
        "lat": 1.315201,
        "lon": 103.765182
      }
    ]
  },
  {
    "title": "Uncle Lee's Hong Kong Noodle & Rice A Little Bit of Mongkok in Telok Blangah",
    "link": "https://www.misstamchiak.com/uncle-lees-hong-kong-noodle-rice/",
    "category": [
      "Hawker",
      "Chicken Rice",
      "Wanton Mee"
    ],
    "imageUrl": "https://farm8.staticflickr.com/7883/31719106367_c32e0311cb_h.jpg",
    "places": [
      {
        "name": "Telok Blangah",
        "lat": 1.270706,
        "lon": 103.809762
      }
    ]
  },
  {
    "title": "Xiong Kee Famous Carrot Cake Well-known Carrot Cake in Tampines",
    "link": "https://www.misstamchiak.com/xiong-kee-famous-carrot-cake/",
    "category": [
      "Hawker",
      "Fried Carrot Cake"
    ],
    "imageUrl": "https://farm8.staticflickr.com/7848/39720823183_9276a0007f_h.jpg",
    "places": [
      {
        "name": "Tampines",
        "lat": 1.353302,
        "lon": 103.945145
      }
    ]
  },
  {
    "title": "Yong Seng Teochew Fishball Noodles Delicious Noodles in Hougang",
    "link": "https://www.misstamchiak.com/yong-seng-teochew-fishball-noodles/",
    "category": [
      "Hawker",
      "Bak Chor Mee",
      "Laksa"
    ],
    "imageUrl": "https://farm8.staticflickr.com/7921/31796129927_485b0d7338_h.jpg",
    "places": [
      {
        "name": "Hougang",
        "lat": 1.371292,
        "lon": 103.892381
      }
    ]
  },
  {
    "title": "Teo Kee Minced Pork Noodles Hearty Noodles at Tampines Round Market & Food Centre",
    "link": "https://www.misstamchiak.com/teo-kee-minced-pork-noodles/",
    "category": [
      "Chinese",
      "Hawker",
      "Bak Chor Mee",
      "Weekend Bites"
    ],
    "imageUrl": "https://farm8.staticflickr.com/7804/46660246491_d5b416ee9a_h.jpg",
    "places": [
      {
        "name": "Commonwealth",
        "lat": 1.302509,
        "lon": 103.798226
      }
    ]
  },
  {
    "title": "FIVE Unique Fish Dishes at Suntec City for a Prosperous Lunar New Year!",
    "link": "https://www.misstamchiak.com/fish-dishes-suntec-city/",
    "category": [
      "Indian",
      "Japanese",
      "Seafood",
      "Sichuan",
      "Restaurant"
    ],
    "imageUrl": "https://farm8.staticflickr.com/7891/32889095948_2b133c557b_o.png",
    "places": [
      {
        "name": "City Hall",
        "lat": 1.292936,
        "lon": 103.852586
      }
    ]
  },
  {
    "title": "Super Ngon Vietnamese Cafe Authentic Hanoi Pho and Coffee in Lavender",
    "link": "https://www.misstamchiak.com/super-ngon-vietnamese-cafe/",
    "category": [
      "Vietnamese",
      "Weekend Bites"
    ],
    "imageUrl": "https://farm5.staticflickr.com/4889/39772590643_1fd5945d3a_h.jpg",
    "places": [
      {
        "name": "Lavender",
        "lat": 1.3073780000000002,
        "lon": 103.862768
      }
    ]
  },
  {
    "title": "Wu Yue Hua ( ) Serving Awesome Roast Duck in Serangoon",
    "link": "https://www.misstamchiak.com/wu-yue-hua/",
    "category": [
      "Hawker",
      "Duck Rice",
      "Roast Meat"
    ],
    "imageUrl": "https://farm5.staticflickr.com/4838/31830945797_547409cb78_h.jpg",
    "places": [
      {
        "name": "Serangoon",
        "lat": 1.349708,
        "lon": 103.873575
      }
    ]
  },
  {
    "title": "Chef Kang Noodle House Michelin-Starred Chef's Wanton Noodle Stall",
    "link": "https://www.misstamchiak.com/chef-kang-wanton-noodle-house/",
    "category": [
      "Hawker",
      "Wanton Mee",
      "Weekend Bites"
    ],
    "imageUrl": "https://farm5.staticflickr.com/4822/32400529148_f9e2d1e4a0_o.jpg",
    "places": [
      {
        "name": "Toa Payoh",
        "lat": 1.332629,
        "lon": 103.847502
      }
    ]
  },
  {
    "title": "Ming Chung Satisfying Henghua Food in Jalan Besar",
    "link": "https://www.misstamchiak.com/ming-chung-henghua/",
    "category": [
      "Chinese"
    ],
    "imageUrl": "https://farm5.staticflickr.com/4852/46222901612_7ff2ba73d9_h.jpg",
    "places": [
      {
        "name": "Jalan Besar",
        "lat": 1.3051709999999999,
        "lon": 103.855296
      }
    ]
  },
  {
    "title": "Biang Biang Noodles Xi'An Speciality Noodles in Toa Payoh",
    "link": "https://www.misstamchiak.com/biang-biang-noodles/",
    "category": [
      "Chinese",
      "Weekend Bites"
    ],
    "imageUrl": "https://farm5.staticflickr.com/4836/31359202117_cb0aa04348_h.jpg",
    "places": [
      {
        "name": "Toa Payoh",
        "lat": 1.332629,
        "lon": 103.847502
      }
    ]
  },
  {
    "title": "(Closed) Hong Shan Ang Ku Kueh Authentic Teochew Kueh Made From Scratch!",
    "link": "https://www.misstamchiak.com/hong-shan-ang-ku-kueh/",
    "category": [
      "Chinese - Teochew",
      "Kueh",
      "Weekend Bites"
    ],
    "imageUrl": "https://farm5.staticflickr.com/4882/44468370320_910b2eb84c_h.jpg",
    "places": [
      {
        "name": "Toa Payoh",
        "lat": 1.332629,
        "lon": 103.847502
      }
    ]
  },
  {
    "title": "Cheng Kee Beef Kway Teow Popular Beef Soup in Hougang",
    "link": "https://www.misstamchiak.com/cheng-kee-beef-kway-teow/",
    "category": [
      "Chinese",
      "Beef Noodles"
    ],
    "imageUrl": "https://farm5.staticflickr.com/4900/44545322060_6ba478d542_h.jpg",
    "places": [
      {
        "name": "Hougang",
        "lat": 1.371292,
        "lon": 103.892381
      }
    ]
  },
  {
    "title": "Jiang Hu Hotpot The NEWEST Hotpot Gem in Town!",
    "link": "https://www.misstamchiak.com/jiang-hu-hotpot/",
    "category": [
      "Chinese",
      "Steamboat"
    ],
    "imageUrl": "https://farm5.staticflickr.com/4814/46077903982_27aba3e0d5_k.jpg",
    "places": [
      {
        "name": "Bedok",
        "lat": 1.32398,
        "lon": 103.92998399999999
      }
    ]
  },
  {
    "title": "Yuki Onna Refreshing Cold Truffle Somen!",
    "link": "https://www.misstamchiak.com/yuki-onna/",
    "category": [
      "Japanese"
    ],
    "imageUrl": "https://farm5.staticflickr.com/4396/35749835473_198a096115_b.jpg",
    "places": [
      {
        "name": "Raffles Place",
        "lat": 1.284126,
        "lon": 103.851462
      }
    ]
  },
  {
    "title": "Jiak Zua Fruit Tea Made with Homemade Sugar in Oxley Tower",
    "link": "https://www.misstamchiak.com/jiak-zua/",
    "category": [
      "Cafe",
      "International"
    ],
    "imageUrl": "https://farm5.staticflickr.com/4794/40712239871_7fd9fba644_h.jpg",
    "places": [
      {
        "name": "Telok Ayer",
        "lat": 1.2820690000000001,
        "lon": 103.848649
      }
    ]
  },
  {
    "title": "Lemaq Nasi Padang Incredible Nasi Padang in Bedok that's Affordable Too!",
    "link": "https://www.misstamchiak.com/lemaq-nasi-padang/",
    "category": [
      "Nasi Padang"
    ],
    "imageUrl": "https://farm5.staticflickr.com/4840/32532670058_dcd04de001_h.jpg",
    "places": [
      {
        "name": "Bedok",
        "lat": 1.32398,
        "lon": 103.92998399999999
      }
    ]
  },
  {
    "title": "Jin Shi Roasted Delight Delectable Roast Duck in Clementi",
    "link": "https://www.misstamchiak.com/jin-shi-roasted-delight/",
    "category": [
      "Hawker",
      "Roast Meat"
    ],
    "imageUrl": "https://farm5.staticflickr.com/4813/45690512694_03bbe7137f_h.jpg",
    "places": [
      {
        "name": "Clementi",
        "lat": 1.315201,
        "lon": 103.765182
      }
    ]
  },
  {
    "title": "Green on Earth Vegetarian Cafe A Contender for the Best Ma La Xiang Guo in Singapore",
    "link": "https://www.misstamchiak.com/green-on-earth-vegetarian-cafe/",
    "category": [
      "Chinese",
      "Restaurant"
    ],
    "imageUrl": "https://farm5.staticflickr.com/4869/31545057227_bcda517509_h.jpg",
    "places": [
      {
        "name": "Bukit Panjang",
        "lat": 1.379002,
        "lon": 103.761535
      }
    ]
  },
  {
    "title": "EATBOX 2019 @ Downtown East Highly Addictive Pop-Up Food Market by ARTBOX, Free Entry for All!",
    "link": "https://www.misstamchiak.com/eatbox-singapore-2019/",
    "category": [
      "Cafe"
    ],
    "imageUrl": "https://farm8.staticflickr.com/7806/46534469281_cb57a91809_b.jpg",
    "places": [
      {
        "name": "Downtown",
        "lat": 1.2794459999999999,
        "lon": 103.85284
      }
    ]
  },
  {
    "title": "290 Indonesia Homey Malay Food in Jalan Besar",
    "link": "https://www.misstamchiak.com/290-indonesia/",
    "category": [
      "Hawker",
      "Malay"
    ],
    "imageUrl": "https://farm5.staticflickr.com/4832/45844377844_358b8a3c67_h.jpg",
    "places": [
      {
        "name": "Jalan Besar",
        "lat": 1.3051709999999999,
        "lon": 103.855296
      }
    ]
  },
  {
    "title": "Queenstown Lontong Delicious Mee Rebus in Commonwealth",
    "link": "https://www.misstamchiak.com/queenstown-lontong/",
    "category": [
      "Malay",
      "Weekend Bites"
    ],
    "imageUrl": "https://farm8.staticflickr.com/7875/45683279895_f0c1e1b4e5_h.jpg",
    "places": [
      {
        "name": "Commonwealth",
        "lat": 1.302509,
        "lon": 103.798226
      }
    ]
  },
  {
    "title": "A&C Kway Chap Delightful Kway Chap in Yishun",
    "link": "https://www.misstamchiak.com/ac-kway-chap-yishun/",
    "category": [
      "Hawker",
      "Kway Chap"
    ],
    "imageUrl": "https://farm8.staticflickr.com/7850/44763472080_b37764474e_h.jpg",
    "places": [
      {
        "name": "Yishun",
        "lat": 1.429443,
        "lon": 103.83500500000001
      }
    ]
  },
  {
    "title": "Effandi Food Corner The Tastiest Nasi Ayam Penyet in Upper Boon Keng Food Centre",
    "link": "https://www.misstamchiak.com/effandi-food-corner/",
    "category": [
      "Hawker",
      "Chicken Rice",
      "Weekend Bites"
    ],
    "imageUrl": "https://farm8.staticflickr.com/7877/46112355294_2c57b65acf_h.jpg",
    "places": [
      {
        "name": "Boon Keng",
        "lat": 1.319336,
        "lon": 103.86156899999999
      }
    ]
  },
  {
    "title": "Bedok Chwee Kueh (Yishun Branch) A Simple Breakfast at Chong Pang Market",
    "link": "https://www.misstamchiak.com/bedok-chwee-kueh-yishun-branch/",
    "category": [
      "Hawker",
      "Chwee Kueh",
      "Weekend Bites"
    ],
    "imageUrl": "https://farm5.staticflickr.com/4819/46785320052_3cd95f0a2f_h.jpg",
    "places": [
      {
        "name": "Yishun",
        "lat": 1.429443,
        "lon": 103.83500500000001
      }
    ]
  },
  {
    "title": "Celebrate by the Marina with 6 Stylish Restaurants at Quayside Isle @ Sentosa Cove",
    "link": "https://www.misstamchiak.com/quayside-isle-sentosa-cove/",
    "category": [
      "Burger",
      "French",
      "Cafe",
      "Chinese",
      "European",
      "Italian",
      "Mediterranean",
      "Seafood",
      "Thai"
    ],
    "imageUrl": "https://farm5.staticflickr.com/4898/46014503325_df7fb7ed44_b.jpg",
    "places": [
      {
        "name": "HarbourFront",
        "lat": 1.2653889999999999,
        "lon": 103.82153000000001
      }
    ]
  },
  {
    "title": "Soup Kambing Haji M. Abdul Razak Best Mutton Soup in Singapore",
    "link": "https://www.misstamchiak.com/haji-m-abdul-razak/",
    "category": [
      "Hawker",
      "Sup Tulang",
      "Weekend Bites"
    ],
    "imageUrl": "https://farm5.staticflickr.com/4909/39872343463_9c6914ea8f_h.jpg",
    "places": [
      {
        "name": "Boon Keng",
        "lat": 1.319336,
        "lon": 103.86156899999999
      }
    ]
  },
  {
    "title": "Cowboy Charcoal Grill Good Prawn Mee from a Western Stall!",
    "link": "https://www.misstamchiak.com/cowboy-charcoal-grill/",
    "category": [
      "Hawker",
      "Prawn Mee",
      "Western",
      "Weekend Bites"
    ],
    "imageUrl": "https://farm5.staticflickr.com/4854/46806621252_1e54fb83d1_h.jpg",
    "places": [
      {
        "name": "Kovan",
        "lat": 1.360179,
        "lon": 103.885065
      }
    ]
  },
  {
    "title": "Traditional Hakka Rice ( ) Healthy Thunder Rice in Tanjong Pagar",
    "link": "https://www.misstamchiak.com/traditional-hakka-rice-tanjong-pagar/",
    "category": [
      "Hawker"
    ],
    "imageUrl": "https://farm8.staticflickr.com/7887/33028170408_166eed1867_h.jpg",
    "places": [
      {
        "name": "Tanjong Pagar",
        "lat": 1.276561,
        "lon": 103.845725
      }
    ]
  },
  {
    "title": "Terminal M Singapore's Newest Terminal (For Food, Of Course)!",
    "link": "https://www.misstamchiak.com/terminal-m-singapore/",
    "category": [
      "Chinese",
      "Japanese",
      "Weekend Bites"
    ],
    "imageUrl": "https://farm8.staticflickr.com/7890/46144996975_2860d71bec_h.jpg",
    "places": [
      {
        "name": "Changi Airport",
        "lat": 1.357479,
        "lon": 103.987884
      }
    ]
  },
  {
    "title": "Baristart Coffee Famous Hokkaido Cafe Opens in Singapore",
    "link": "https://www.misstamchiak.com/baristart-coffee-singapore/",
    "category": [
      "Cafe"
    ],
    "imageUrl": "https://farm8.staticflickr.com/7895/40093574643_77f163bc15_h.jpg",
    "places": [
      {
        "name": "Tanjong Pagar",
        "lat": 1.276561,
        "lon": 103.845725
      }
    ]
  },
  {
    "title": "115 Tang Shui Artisanal Traditional Desserts in Chinatown Complex",
    "link": "https://www.misstamchiak.com/115-tang-shui/",
    "category": [
      "Desserts",
      "Weekend Bites"
    ],
    "imageUrl": "https://farm8.staticflickr.com/7815/46894283712_2723e9b34e_h.jpg",
    "places": [
      {
        "name": "Chinatown",
        "lat": 1.284224,
        "lon": 103.84514399999999
      }
    ]
  },
  {
    "title": "Hao Lai Ke ( ) Delectable Chinese Food in Bedok by Ex-Din Tai Feng Chef!",
    "link": "https://www.misstamchiak.com/hao-lai-ke-chinese-food-bedok/",
    "category": [
      "Chinese",
      "Weekend Bites"
    ],
    "imageUrl": "https://farm8.staticflickr.com/7805/46355284984_88d7fa8df6_h.jpg",
    "places": [
      {
        "name": "Bedok",
        "lat": 1.32398,
        "lon": 103.92998399999999
      }
    ]
  },
  {
    "title": "Eng's Char Siew Wantan Mee The East Village Branch has the Best Claypot Rice",
    "link": "https://www.misstamchiak.com/engs-wantan-mee-east-village/",
    "category": [
      "Chinese",
      "Hawker",
      "Claypot Rice",
      "Wanton Mee"
    ],
    "imageUrl": "https://farm5.staticflickr.com/4851/32425305258_545231e5e2_h.jpg",
    "places": [
      {
        "name": "Tampines",
        "lat": 1.353302,
        "lon": 103.945145
      },
      {
        "name": "Bedok",
        "lat": 1.32398,
        "lon": 103.92998399999999
      }
    ]
  },
  {
    "title": "Emerald Soya Sauce Chicken The Cheapest Soya Sauce Chicken in Chinatown Complex",
    "link": "https://www.misstamchiak.com/emerald-soya-sauce-chicken/",
    "category": [
      "Hawker",
      "Chicken Rice",
      "Roast Meat",
      "Weekend Bites"
    ],
    "imageUrl": "https://farm8.staticflickr.com/7887/46020822665_d0c2b343fa_h.jpg",
    "places": [
      {
        "name": "Chinatown",
        "lat": 1.284224,
        "lon": 103.84514399999999
      }
    ]
  },
  {
    "title": "Penang Fried Kway Teow Smooth Kway Teow at Upper Boon Keng Food Centre",
    "link": "https://www.misstamchiak.com/penang-fried-kway-teow/",
    "category": [
      "Hawker",
      "Char Kway Teow"
    ],
    "imageUrl": "https://farm8.staticflickr.com/7850/33025922148_5b03a9395a_h.jpg",
    "places": [
      {
        "name": "Boon Keng",
        "lat": 1.319336,
        "lon": 103.86156899999999
      }
    ]
  },
  {
    "title": "Joo Chiat Beef King The King of the North?",
    "link": "https://www.misstamchiak.com/joo-chiat-beef-king/",
    "category": [
      "Hawker",
      "Beef Noodles"
    ],
    "imageUrl": "https://farm1.staticflickr.com/853/43668263921_fe895f28c3_b.jpg",
    "places": [
      {
        "name": "Toa Payoh",
        "lat": 1.332629,
        "lon": 103.847502
      }
    ]
  },
  {
    "title": "Rong Xing Yong Tau Foo Fresh Yong Tau Foo at Tanjong Pagar Food Centre",
    "link": "https://www.misstamchiak.com/rong-xing-yong-tau-foo/",
    "category": [
      "Hawker",
      "Yong Tau Foo"
    ],
    "imageUrl": "https://farm5.staticflickr.com/4909/46858716161_d4fb6386d3_h.jpg",
    "places": [
      {
        "name": "Tanjong Pagar",
        "lat": 1.276561,
        "lon": 103.845725
      }
    ]
  },
  {
    "title": "Apartment Coffee A New Home for Coffee Lovers",
    "link": "https://www.misstamchiak.com/apartment-coffee/",
    "category": [
      "Cafe"
    ],
    "imageUrl": "https://farm2.staticflickr.com/1966/30325157397_378747e402_h.jpg",
    "places": [
      {
        "name": "Lavender",
        "lat": 1.3073780000000002,
        "lon": 103.862768
      }
    ]
  },
  {
    "title": "Beef Up Halal Taiwanese Street Food!",
    "link": "https://www.misstamchiak.com/beef-up-halal-taiwanese-food/",
    "category": [
      "Taiwanese",
      "Beef Noodles",
      "Weekend Bites"
    ],
    "imageUrl": "https://farm2.staticflickr.com/1964/31277386108_7a70dc909f_b.jpg",
    "places": [
      {
        "name": "Toa Payoh",
        "lat": 1.332629,
        "lon": 103.847502
      }
    ]
  },
  {
    "title": "Thai Master Kitchen Affordable Thai Restaurant in Hougang",
    "link": "https://www.misstamchiak.com/thai-master-kitchen/",
    "category": [
      "Thai"
    ],
    "imageUrl": "https://farm2.staticflickr.com/1862/43243215385_98e54c829e_h.jpg",
    "places": [
      {
        "name": "Hougang",
        "lat": 1.371292,
        "lon": 103.892381
      }
    ]
  },
  {
    "title": "TaiGai The Creator of Fruit-Blended Cheese Tea Arrives in Singapore",
    "link": "https://www.misstamchiak.com/taigai-singapore/",
    "category": [
      "Cafe"
    ],
    "imageUrl": "https://farm2.staticflickr.com/1848/30677194428_ea7c9e65bb_b.jpg",
    "places": [
      {
        "name": "Serangoon",
        "lat": 1.349708,
        "lon": 103.873575
      }
    ]
  },
  {
    "title": "The Famous Zhou Porridge Stall by Chew Chor Meng & Zhou Chongqing!",
    "link": "https://www.misstamchiak.com/the-famous-zhou-porridge/",
    "category": [
      "Chinese",
      "Porridge"
    ],
    "imageUrl": "https://farm2.staticflickr.com/1773/42279112970_d62a4d1b97_h.jpg",
    "places": [
      {
        "name": "Ang Mo Kio",
        "lat": 1.369933,
        "lon": 103.849558
      }
    ]
  },
  {
    "title": "ButterNut This Hawker Stall Serves Unique Fusion Western Food!",
    "link": "https://www.misstamchiak.com/butternut-western-food/",
    "category": [
      "Hawker",
      "Western"
    ],
    "imageUrl": "https://farm2.staticflickr.com/1778/43771732882_1325c98f0d_b.jpg",
    "places": [
      {
        "name": "Jurong East",
        "lat": 1.333153,
        "lon": 103.742287
      }
    ]
  },
  {
    "title": "Bowl Chap Tasty Japanese Rice Bowls Below $6!",
    "link": "https://www.misstamchiak.com/bowl-chap-japanese-bowl/",
    "category": [
      "Hawker",
      "Japanese"
    ],
    "imageUrl": "https://farm2.staticflickr.com/1911/44247481195_026b66a122_b.jpg",
    "places": [
      {
        "name": "Clementi",
        "lat": 1.315201,
        "lon": 103.765182
      }
    ]
  },
  {
    "title": "Imperial Herbal Restaurant Healthy & Nourishing Chinese Food",
    "link": "https://www.misstamchiak.com/imperial-herbal-restaurant/",
    "category": [
      "Chinese"
    ],
    "imageUrl": "https://farm2.staticflickr.com/1837/42897810405_465881e19f_b.jpg",
    "places": [
      {
        "name": "Clarke Quay",
        "lat": 1.288386,
        "lon": 103.84655500000001
      }
    ]
  },
  {
    "title": "Thai Ruk Thai New Stall in AMK Selling Tasty Thai Street Food!",
    "link": "https://www.misstamchiak.com/thai-ruk-thai/",
    "category": [
      "Hawker",
      "Thai",
      "Wanton Mee"
    ],
    "imageUrl": "https://farm1.staticflickr.com/934/42974422725_072d090df4_b.jpg",
    "places": [
      {
        "name": "Ang Mo Kio",
        "lat": 1.369933,
        "lon": 103.849558
      }
    ]
  },
  {
    "title": "Hup Seng Heng Vegetarian Comforting Vegetarian Food",
    "link": "https://www.misstamchiak.com/hup-seng-heng-vegetarian/",
    "category": [
      "Hawker",
      "Vegetarian"
    ],
    "imageUrl": "https://farm1.staticflickr.com/938/43876182402_914afa3495_k.jpg",
    "places": [
      {
        "name": "Clementi",
        "lat": 1.315201,
        "lon": 103.765182
      }
    ]
  },
  {
    "title": "Wei Yi Laksa and Prawn Noodle Could This be THE ONLY Laksa for You?",
    "link": "https://www.misstamchiak.com/wei-yi-laksa-and-prawn-noodle/",
    "category": [
      "Hawker",
      "Laksa"
    ],
    "imageUrl": "https://farm2.staticflickr.com/1893/44540603512_bef7e24223_b.jpg",
    "places": [
      {
        "name": "Commonwealth",
        "lat": 1.302509,
        "lon": 103.798226
      }
    ]
  },
  {
    "title": "Victory Thai Boat Noodle It Made Me a Boat Noodles Convert",
    "link": "https://www.misstamchiak.com/victory-thai-boat-noodle/",
    "category": [
      "Cafe",
      "Thai"
    ],
    "imageUrl": "https://farm2.staticflickr.com/1798/42282725140_7cd76aa6b4_b.jpg",
    "places": [
      {
        "name": "Beauty World",
        "lat": 1.341223,
        "lon": 103.77579399999999
      }
    ]
  },
  {
    "title": "Nasi Beringin Bringing Back a Dish that was Served to Sultans in the 1890s",
    "link": "https://www.misstamchiak.com/nasi-beringin/",
    "category": [
      "Hawker",
      "Malay"
    ],
    "imageUrl": "https://farm2.staticflickr.com/1899/42822623450_1b66b08b93_k.jpg",
    "places": [
      {
        "name": "Yishun",
        "lat": 1.429443,
        "lon": 103.83500500000001
      },
      {
        "name": "Khatib",
        "lat": 1.417383,
        "lon": 103.83298
      }
    ]
  },
  {
    "title": "Dashi Master Marusaya Only Premium And All-Natural Ingredients Are Used In This Shabu Shabu!",
    "link": "https://www.misstamchiak.com/dashi-master-marusaya/",
    "category": [
      "Japanese",
      "Steamboat"
    ],
    "imageUrl": "https://farm1.staticflickr.com/933/43750881632_97cd650383_b.jpg",
    "places": [
      {
        "name": "Clarke Quay",
        "lat": 1.288386,
        "lon": 103.84655500000001
      }
    ]
  },
  {
    "title": "Chun Ji Curry Rice Homey Cooking that will Fill Your Tummy",
    "link": "https://www.misstamchiak.com/chun-ji-curry-rice/",
    "category": [
      "Chinese",
      "Curry Rice"
    ],
    "imageUrl": "https://farm2.staticflickr.com/1791/28988293877_3cc19a19d7_k.jpg",
    "places": [
      {
        "name": "Clementi",
        "lat": 1.315201,
        "lon": 103.765182
      }
    ]
  },
  {
    "title": "Lor Mee GHS Second-Generation Hawker Stall Returns After an 8 Year Hiatus!",
    "link": "https://www.misstamchiak.com/lor-mee-ghs/",
    "category": [
      "Chinese - Hokkien",
      "Chinese",
      "Hawker",
      "Lor Mee"
    ],
    "imageUrl": "https://farm1.staticflickr.com/926/43617909792_4cbee15a56_b.jpg",
    "places": [
      {
        "name": "Bugis",
        "lat": 1.300465,
        "lon": 103.85570600000001
      }
    ]
  },
  {
    "title": "Lorong Ah Soo Lor Mee Soulful Lor Mee with a Secret Ingredient",
    "link": "https://www.misstamchiak.com/lorong-ah-soo-lor-mee/",
    "category": [
      "Chinese - Hokkien",
      "Lor Mee"
    ],
    "imageUrl": "https://farm1.staticflickr.com/922/43576144962_39197b186a_b.jpg",
    "places": [
      {
        "name": "Hougang",
        "lat": 1.371292,
        "lon": 103.892381
      }
    ]
  },
  {
    "title": "Ho-Bee Roasted Food Satisfy Your Roast Meat Cravings Here!",
    "link": "https://www.misstamchiak.com/ho-bee-roasted-food/",
    "category": [
      "Hawker",
      "Duck Rice"
    ],
    "imageUrl": "https://farm2.staticflickr.com/1831/43136853675_96e4b2ce48_k.jpg",
    "places": [
      {
        "name": "Ang Mo Kio",
        "lat": 1.369933,
        "lon": 103.849558
      }
    ]
  },
  {
    "title": "Famous Sungei Road Trishaw Laksa Awarded Michelin Bib Gourmand for the 3rd Time!",
    "link": "https://www.misstamchiak.com/famous-sungei-road-trishaw-laksa/",
    "category": [
      "Hawker",
      "Laksa",
      "Mee Siam"
    ],
    "imageUrl": "https://farm1.staticflickr.com/833/43523372981_286b94c676_b.jpg",
    "places": [
      {
        "name": "Chinatown",
        "lat": 1.284224,
        "lon": 103.84514399999999
      }
    ]
  },
  {
    "title": "Fu Xiang Signatures Relive the Good Old Days Through Home-Cooked Local Dishes",
    "link": "https://www.misstamchiak.com/fu-xiang-signatures/",
    "category": [
      "Chinese"
    ],
    "imageUrl": "https://farm2.staticflickr.com/1980/44965673851_baaf299810_h.jpg",
    "places": [
      {
        "name": "HarbourFront",
        "lat": 1.2653889999999999,
        "lon": 103.82153000000001
      }
    ]
  },
  {
    "title": "Lee Tong Kee ( ) The Pioneer of Ipoh Hor Fun in Singapore!",
    "link": "https://www.misstamchiak.com/lee-tong-kee-ipoh-hor-fun/",
    "category": [
      "Chinese",
      "Restaurant"
    ],
    "imageUrl": "https://farm1.staticflickr.com/940/42761063025_db7bc6ca25_b.jpg",
    "places": [
      {
        "name": "Chinatown",
        "lat": 1.284224,
        "lon": 103.84514399999999
      }
    ]
  },
  {
    "title": "Shi De Fu Wanton Mee Juicy Handmade Wantons & Crispy Dumplings",
    "link": "https://www.misstamchiak.com/shi-de-fu-wanton-mee/",
    "category": [
      "Cook",
      "Wanton Mee"
    ],
    "imageUrl": "https://farm1.staticflickr.com/852/43051575005_864d43d848_h.jpg",
    "places": [
      {
        "name": "Geylang Bahru",
        "lat": 1.321301,
        "lon": 103.871623
      }
    ]
  },
  {
    "title": "Fook Kin Fancy some Chewy AND Crispy Caramelised Charsiew?",
    "link": "https://www.misstamchiak.com/fook-kin/",
    "category": [
      "Chinese - Hakka",
      "Chinese"
    ],
    "imageUrl": "https://farm2.staticflickr.com/1979/44961045662_2a0165b928_h.jpg",
    "places": [
      {
        "name": "Orchard",
        "lat": 1.30398,
        "lon": 103.832245
      }
    ]
  },
  {
    "title": "Outram Park Fried Kway Teow Mee An Addictively Smoky Delight Not to be Missed",
    "link": "https://www.misstamchiak.com/outram-park-fried-kway-teow-mee/",
    "category": [
      "Char Kway Teow"
    ],
    "imageUrl": "https://farm2.staticflickr.com/1803/43476659412_f3461a096d_k.jpg",
    "places": [
      {
        "name": "Outram Park",
        "lat": 1.2797399999999999,
        "lon": 103.83951400000001
      }
    ]
  },
  {
    "title": "Fancy Some Traditional Wanton Mee at Albert Food Centre?",
    "link": "https://www.misstamchiak.com/traditional-wanton-mee/",
    "category": [
      "Chinese",
      "Hawker",
      "Wanton Mee"
    ],
    "imageUrl": "https://farm2.staticflickr.com/1832/30330930128_0eec8a5461_b.jpg",
    "places": [
      {
        "name": "Bugis",
        "lat": 1.300465,
        "lon": 103.85570600000001
      }
    ]
  },
  {
    "title": "Da Sheng Bak Chor Mee Excellent Teochew Bak Chor Mee by a 4th-Gen Hawker",
    "link": "https://www.misstamchiak.com/da-sheng-bak-chor-mee/",
    "category": [
      "Chinese - Teochew",
      "Bak Chor Mee"
    ],
    "imageUrl": "https://farm2.staticflickr.com/1816/43369814694_bb2acb90b0_h.jpg",
    "places": [
      {
        "name": "Ubi",
        "lat": 1.329975,
        "lon": 103.899227
      }
    ]
  },
  {
    "title": "Daily Affairs Ex-Hotel Chef Opens Hidden Cafe in a Community Centre!",
    "link": "https://www.misstamchiak.com/daily-affairs-cafe-singapore/",
    "category": [
      "Cafe",
      "Desserts",
      "Japanese",
      "Restaurant"
    ],
    "imageUrl": "https://farm1.staticflickr.com/841/43605497111_ec28d1b365_h.jpg",
    "places": [
      {
        "name": "Newton",
        "lat": 1.3123200000000002,
        "lon": 103.837985
      }
    ]
  },
  {
    "title": "Shi Xian Lovely Mee Siam and Mee Rebus!",
    "link": "https://www.misstamchiak.com/shi-xian-mee-siam-mee-rebus/",
    "category": [
      "Mee Rebus",
      "Mee Siam"
    ],
    "imageUrl": "https://farm2.staticflickr.com/1839/42911936905_2c181e351e_h.jpg",
    "places": [
      {
        "name": "Ang Mo Kio",
        "lat": 1.369933,
        "lon": 103.849558
      }
    ]
  },
  {
    "title": "Punggol Noodles Mouthwatering Meatballs and Slurp-Worthy Bar Chor Mee",
    "link": "https://www.misstamchiak.com/punggol-noodles/",
    "category": [
      "Cook",
      "Bak Chor Mee"
    ],
    "imageUrl": "https://farm1.staticflickr.com/934/28822437057_f17e7605a9_h.jpg",
    "places": [
      {
        "name": "Punggol",
        "lat": 1.404547,
        "lon": 103.902073
      }
    ]
  },
  {
    "title": "Black Fairy Coffee Secret New Cafe at Tyrwhitt Road!",
    "link": "https://www.misstamchiak.com/black-fairy-coffee/",
    "category": [
      "Burger"
    ],
    "imageUrl": "https://farm2.staticflickr.com/1966/45050276391_bb23ef31a0_h.jpg",
    "places": [
      {
        "name": "Lavender",
        "lat": 1.3073780000000002,
        "lon": 103.862768
      }
    ]
  },
  {
    "title": "Chop Chop Western Grill & Pasta A Passion Project Started by 3 Engineers",
    "link": "https://www.misstamchiak.com/chop-chop-western-grill-pasta/",
    "category": [
      "Hawker",
      "Western"
    ],
    "imageUrl": "https://farm1.staticflickr.com/860/42952079384_a4241dc525_b.jpg",
    "places": [
      {
        "name": "Toa Payoh",
        "lat": 1.332629,
        "lon": 103.847502
      }
    ]
  },
  {
    "title": "Famous Treasure A Real Gem Serving Zichar Feast in Capitol Piazza",
    "link": "https://www.misstamchiak.com/famous-treasure-capitol-piazza/",
    "category": [
      "Chinese - Cantonese",
      "Chinese"
    ],
    "imageUrl": "https://farm2.staticflickr.com/1871/43803819075_03a6403335_h.jpg",
    "places": [
      {
        "name": "City Hall",
        "lat": 1.292936,
        "lon": 103.852586
      }
    ]
  },
  {
    "title": "Queen of Treats The New Dessert Queen in Bedok",
    "link": "https://www.misstamchiak.com/queen-of-treats/",
    "category": [
      "Confectionary",
      "Desserts"
    ],
    "imageUrl": "https://farm2.staticflickr.com/1979/44728565964_36203d8656_h.jpg",
    "places": [
      {
        "name": "Bedok",
        "lat": 1.32398,
        "lon": 103.92998399999999
      }
    ]
  },
  {
    "title": "Macpherson Bak Chor Mee Hidden Gem in Toa Payoh!",
    "link": "https://www.misstamchiak.com/macpherson-bak-chor-mee/",
    "category": [
      "Chinese - Teochew",
      "Hawker",
      "Bak Chor Mee"
    ],
    "imageUrl": "https://farm2.staticflickr.com/1869/43887610175_eb9eae5675_k.jpg",
    "places": [
      {
        "name": "Braddell",
        "lat": 1.3404690000000001,
        "lon": 103.846799
      },
      {
        "name": "Toa Payoh",
        "lat": 1.332629,
        "lon": 103.847502
      },
      {
        "name": "MacPherson",
        "lat": 1.32615,
        "lon": 103.889299
      }
    ]
  },